%time,field.linear.x,field.linear.y,field.linear.z,field.angular.x,field.angular.y,field.angular.z
1437512285489022970,0.0,-0.0,0.0,1.0,0.0,1.57079632679
1437512285498044967,0.0,-0.0,0.0,1.0,0.0,1.57079632679
1437512285518024921,0.0,-0.0,0.0,1.0,0.0,1.57079632679
1437512285538063049,0.0,-0.0,0.0,1.0,0.0,1.57079632679
1437512285558053970,0.0,-0.0,0.0,1.0,0.0,1.57079632679
1437512285578011035,0.0,-0.0,0.0,1.0,0.0,1.57079632679
1437512285598042964,0.0,-0.0,0.0,1.0,0.0,1.57079632679
1437512285618010044,0.0,-0.0,0.0,1.0,0.0,1.57079632679
1437512285638109922,-0.0107396357285,0.0970930331852,0.38916253615,1.0,0.0,0.00458202138543
1437512285658075094,-0.00961337948102,0.086035705125,0.383222908217,1.0,0.0,0.00462784152478
1437512285678169965,-0.0094672080595,0.0958110670559,0.390047913325,1.0,0.0,0.00461826194078
1437512285698168039,-0.0104366293584,0.0964507129509,0.389575521201,1.0,0.0,0.00457303319126
1437512285718146085,-0.0093474466179,0.085466669919,0.383628941226,1.0,0.0,0.00461876345798
1437512285738111972,-0.010572557,0.0968195832334,0.390262720573,1.0,0.0,0.00452051265165
1437512285758030891,-0.0100795181352,0.0946601499803,0.391020117289,1.0,0.0,0.00481468718499
1437512285778179883,-0.0090344709577,0.0838804649655,0.385050848347,1.0,0.0,0.00486283423379
1437512285798331975,-0.00809671428287,0.0743284533266,0.379172469282,1.0,0.0,0.00491146277636
1437512285818141937,-0.00725536641548,0.0658642997965,0.373383596283,1.0,0.0,0.00496057746932
1437512285838097095,0.00292010154808,-0.0268052422442,0.367682868308,1.0,0.0,0.00501018343493
1437512285858158111,-0.00122247879683,0.0202959730173,0.392341540116,1.0,0.0,0.0046634231694
1437512285878091096,-0.00142209508667,0.0105191255352,0.392793622279,1.0,0.0,0.00472305715084
1437512285898327112,-0.000420941656921,0.00876043595199,0.386796012211,1.0,0.0,0.00477028777823
1437512285918059110,-0.00133781384666,0.0173973630706,0.380889724076,1.0,0.0,0.00481799058616
1437512285938889980,-0.00140540967582,0.0109666718352,0.393018451351,1.0,0.0,0.00455218786374
1437512285958132982,-0.0016890646657,0.0116122117263,0.387016761458,1.0,0.0,0.0045977095142
1437512285978105068,-0.0013302440917,0.0195035675541,0.394122260344,1.0,0.0,0.00481794634834
1437512285998120069,-0.00202262851599,0.0256606766954,0.388103284508,1.0,0.0,0.00486612599343
1437512286018022060,-0.00255828191439,0.0301624142332,0.382175948691,1.0,0.0,0.00491478713229
1437512286038136959,-0.00296184400941,0.0333060040837,0.376338869673,1.0,0.0,0.0049639348872
1437512286058052062,-0.000335490558791,0.0088963419199,0.394636866307,1.0,0.0,0.00476781837642
1437512286078109025,-0.000653488112584,0.0105394927603,0.395280374211,1.0,0.0,0.00473631545901
1437512286098220109,-0.000722639355808,0.0103892769846,0.389242655599,1.0,0.0,0.00478367879987
1437512286118264913,-5.1870529569e-05,0.0128015292627,0.395902808654,1.0,0.0,0.00470160273835
1437512286138489007,0.000942301344185,0.00824753720663,0.38985514977,1.0,0.0,0.00474861869588
1437512286158051013,-0.000175095570739,0.0106669189772,0.396503159982,1.0,0.0,0.00478969281539
1437512286178116083,-0.00145084941305,0.0143821464851,0.39699871707,1.0,0.0,0.00452846288681
1437512286198107004,-0.00141451715735,0.0146931320021,0.390933690667,1.0,0.0,0.00457374751568
1437512286218097925,-0.00144594765479,0.0155836476421,0.384961009425,1.0,0.0,0.00461948476732
1437512286238087892,-0.00222123502244,0.0201437120209,0.397849628288,1.0,0.0,0.00472800992429
1437512286258124113,-0.00186617151412,0.0104823410875,0.391770970482,1.0,0.0,0.00477528991178
1437512286278362989,-0.00133085631078,0.00877293336962,0.385784862363,1.0,0.0,0.00482304301113
1437512286298301935,-0.00124396761885,0.00882758092048,0.379889897567,1.0,0.0,0.0048712734133
1437512286318161010,-0.00172973652116,0.00647469047108,0.374084692478,1.0,0.0,0.00491998624057
1437512286338110923,-0.000744281001607,0.0137521331402,0.398123701173,1.0,0.0,0.00452889595181
1437512286358186960,-0.00125136740744,0.0137382143745,0.398974872577,1.0,0.0,0.00440531596541
1437512286378089904,-0.000984905939549,0.0101182431346,0.392877744311,1.0,0.0,0.00444936892018
1437512286398155927,-0.000636678707815,0.0103401754415,0.399858338135,1.0,0.0,0.00469939922914
1437512286418127059,-0.000703332244666,0.0106300949868,0.393747314018,1.0,0.0,0.00474639330059
1437512286438170909,4.42150230811e-05,0.010362591967,0.40043443684,1.0,0.0,0.00468047102913
1437512286458092927,-0.000174944393802,0.0111934399255,0.39431417743,1.0,0.0,0.00472727557644
1437512286478136062,-0.000734015523813,0.0130257300305,0.400936822742,1.0,0.0,0.00469682924449
1437512286498100996,-0.00078907110983,0.0124176358622,0.394808465791,1.0,0.0,0.00474379770458
1437512286518070936,-0.000848615134601,0.015280421378,0.401556311899,1.0,0.0,0.0046030995436
1437512286538213968,-0.00162633598738,0.00827854894014,0.395418060338,1.0,0.0,0.00464913062751
1437512286558252096,0.00237727092463,0.00876331645995,0.401620329392,1.0,0.0,0.00464410148561
1437512286578135967,0.00269467025064,0.0108362859024,0.402213885003,1.0,0.0,0.00457642832771
1437512286598330974,0.00195488043682,0.0106638984755,0.396064952689,1.0,0.0,0.0046221925877
1437512286618065118,0.00275876479573,0.0110648797734,0.40175170874,1.0,0.0,0.00473590102047
1437512286638179063,0.00319534601294,0.00939793024299,0.402098813164,1.0,0.0,0.00470813317224
1437512286658111095,0.00283512547321,0.00935943946242,0.395950981051,1.0,0.0,0.00475521432236
1437512286678128004,0.0041397172783,0.0098662249562,0.402698926896,1.0,0.0,0.00473412685096
1437512286698436021,0.00359599820804,0.0100388869825,0.396541497135,1.0,0.0,0.00478146830574
1437512286718094110,0.00312567831133,0.00715269183565,0.390477847284,1.0,0.0,0.00482928287238
1437512286738095998,0.00384779037267,0.0102952987319,0.403138880962,1.0,0.0,0.00480752019212
1437512286758083105,0.000942218683485,0.00780926164589,0.396974099761,1.0,0.0,0.00485559552908
1437512286778125047,0.00044868040568,0.00630371609877,0.390903188634,1.0,0.0,0.00490415142849
1437512286798175096,0.00066999607443,0.00667068457406,0.384924718392,1.0,0.0,0.00495319301262
1437512286818264007,-0.00228349452373,0.0170608816668,0.405121680117,1.0,0.0,0.00432016141713
1437512286838253974,-0.00262789071858,0.0157425392419,0.398925778931,1.0,0.0,0.00436336314306
1437512286858112096,-0.00192842307224,0.017100192752,0.405808790642,1.0,0.0,0.00454888632521
1437512286878371000,-0.00257648537809,0.0141036041809,0.399601972657,1.0,0.0,0.00459437537938
1437512286898252010,-0.00250619197031,0.0155628468114,0.406469812292,1.0,0.0,0.00463693635538
1437512286918095111,-0.00189084432277,0.0170012018847,0.406952516848,1.0,0.0,0.00461214641109
1437512286938174009,-0.00238870580361,0.0136481049267,0.400727604938,1.0,0.0,0.00465826783329
1437512286958039999,-0.00225096174981,0.0146166174149,0.40722970053,1.0,0.0,0.00483389990404
1437512286978221893,-0.00190875279441,0.0137346730771,0.401000125617,1.0,0.0,0.00488223880529
1437512286998363018,-0.00171062480658,0.0169059665146,0.40769707002,1.0,0.0,0.00471376627684
1437512287018136024,-0.000366837354159,0.00809254660853,0.408443976802,1.0,0.0,0.00474105309695
1437512287038507938,-0.000547390428619,0.00887448228896,0.402195215732,1.0,0.0,0.00478846346959
1437512287058064937,0.00149248507951,0.00733848888776,0.409373298138,1.0,0.0,0.00498647848144
1437512287078077077,0.00113673204178,0.00820844422851,0.403109912199,1.0,0.0,0.00503634335473
1437512287098212957,-5.54419646505e-05,0.0103467865098,0.409771731418,1.0,0.0,0.00478449324146
1437512287118071079,-0.000276419409784,0.0087892036885,0.403501840281,1.0,0.0,0.00483233807608
1437512287138073921,-0.00101424532731,0.0109473332672,0.410526951629,1.0,0.0,0.00499904341996
1437512287158073902,-0.00167900336528,0.00953873362305,0.411242418438,1.0,0.0,0.00504309870303
1437512287178061008,-0.00170952513727,0.00991272706451,0.404949428421,1.0,0.0,0.00509352982044
1437512287198138952,-0.00197180223186,0.00687160338857,0.411754031616,1.0,0.0,0.00512226764113
1437512287218086004,-0.00124020767398,0.00625358464022,0.405452807426,1.0,0.0,0.00517349038273
1437512287238090038,-0.00113514351415,0.00635103303939,0.399247521174,1.0,0.0,0.00522522535175
1437512287258245944,-0.00308807401743,0.00665649129078,0.393136745298,1.0,0.0,0.00527747767046
1437512287278161048,-0.00258726336469,0.00663659630518,0.387119003391,1.0,0.0,0.00533025246114
1437512287298372983,0.00286832142738,0.0107566874656,0.412977999073,1.0,0.0,0.00493228621781
1437512287318093061,0.00253361367795,0.0105618400681,0.406657022613,1.0,0.0,0.00498160906136
1437512287338184118,0.00199251426093,0.00813421104103,0.414088878554,1.0,0.0,0.00526103936136
1437512287358151912,0.000590006286075,0.0152553042397,0.413658578926,1.0,0.0,0.0047088698484
1437512287378063917,0.0003481198386,0.0144677713877,0.407326556355,1.0,0.0,0.0047559584491
1437512287398209095,0.000545596989105,0.0175867895799,0.414183194476,1.0,0.0,0.00463808840141
1437512287418160915,0.000274679711583,0.0162665082549,0.407842733258,1.0,0.0,0.00468446919695
1437512287438230037,-0.00389675810293,0.0210618015786,0.414495562893,1.0,0.0,0.00429997080937
1437512287458081007,-0.00358017437393,0.0192985661328,0.408149915969,1.0,0.0,0.0043429704383
1437512287478101015,-0.00442889454716,0.0208864957502,0.414000998765,1.0,0.0,0.00442055845633
1437512287498291969,-0.00548774368945,0.014018901551,0.414692073923,1.0,0.0,0.00451248325408
1437512287518230915,-0.00457917177409,0.0135049004108,0.408342774296,1.0,0.0,0.00455760816112
1437512287538307905,-0.00351802754158,0.0158151591924,0.415221682417,1.0,0.0,0.00464095221832
1437512287558140039,-0.00121853518722,0.00889697994862,0.408863853568,1.0,0.0,0.00468736188486
1437512287578159093,0.000153529179079,0.0132905330509,0.415723322201,1.0,0.0,0.00456980103627
1437512287598417997,5.14166611538e-05,0.00966460466298,0.409357420421,1.0,0.0,0.00461549917236
1437512287618180036,0.000106354575837,0.010321938042,0.403088458771,1.0,0.0,0.00466165412217
1437512287638284921,0.00644908376271,0.00482198871323,0.416913790625,1.0,0.0,0.00499476538971
1437512287658055067,0.00656925988442,0.00634499110456,0.417374314678,1.0,0.0,0.00511825131252
1437512287678122043,0.00629260149726,0.00480221282342,0.410982353282,1.0,0.0,0.00516943400726
1437512287698082923,0.0045777458814,0.00902365740476,0.417133554333,1.0,0.0,0.00491125462577
1437512287718172073,0.00350971125299,0.00938676461665,0.410744821453,1.0,0.0,0.00496036699042
1437512287738156080,4.45221809059e-05,0.0147782593602,0.417690371275,1.0,0.0,0.0044234986417
1437512287758121967,-0.000312545250745,0.0146717448151,0.41129272446,1.0,0.0,0.00446773367003
1437512287778107881,-0.00143092007565,0.0104841632405,0.404992495227,1.0,0.0,0.00451241107658
1437512287798037052,-0.00586159071536,0.0190316282213,0.418254965138,1.0,0.0,0.00402075937018
1437512287818135023,-0.00519684279279,0.0178339244798,0.411848056901,1.0,0.0,0.00406096689403
1437512287838470935,-0.00896223349264,0.0217640862684,0.419831616998,1.0,0.0,0.0040504229255
1437512287858114004,-0.00839202341158,0.0197998955438,0.413400215566,1.0,0.0,0.00409092707559
1437512287878184080,-0.00628031624947,0.022180393897,0.420309792918,1.0,0.0,0.00403048889711
1437512287898185014,-0.00660826349049,0.0198994632403,0.420667844963,1.0,0.0,0.0039850580506
1437512287918076992,-0.00540641093976,0.0185438149492,0.414223034632,1.0,0.0,0.00402490841225
1437512287938414096,-0.00523255518638,0.0150064188623,0.421708385456,1.0,0.0,0.00391780724749
1437512287958373069,-0.00463195311604,0.0147782178959,0.415247244728,1.0,0.0,0.00395698519424
1437512287978212118,0.000742746885226,0.0172436705994,0.420733460599,1.0,0.0,0.00419015530497
1437512287998472929,0.00455226692429,0.00894538331777,0.414286784583,1.0,0.0,0.00423205690458
1437512288018147945,0.00566385698039,0.0110446358281,0.42136071651,1.0,0.0,0.00445435149595
1437512288038219928,0.00616565250675,0.0077489002404,0.414904034597,1.0,0.0,0.00449889479205
1437512288058471918,0.00312045481696,0.0159651045891,0.421734008354,1.0,0.0,0.00392148597166
1437512288078155994,-0.000568840021515,0.0113551960894,0.424001512647,1.0,0.0,0.00404800940305
1437512288098036050,-0.000642729308674,0.00968568787066,0.417503858113,1.0,0.0,0.00408848933876
1437512288118289947,-5.793109558e-05,0.0100853592157,0.42444352566,1.0,0.0,0.00427516363561
1437512288138319015,0.00384383593337,0.00871777962893,0.425327447754,1.0,0.0,0.00435915356502
1437512288158169031,0.00288550482655,0.0092166627961,0.418808924198,1.0,0.0,0.00440274504945
1437512288178190946,-0.00135480599056,0.00913549378602,0.425659133935,1.0,0.0,0.00442501716316
1437512288198138952,-0.00112085116816,0.00982038602233,0.419135104674,1.0,0.0,0.00446926755831
1437512288218048095,-0.00247881682444,0.00852584850218,0.412710425442,1.0,0.0,0.00451396033168
1437512288238162994,-0.00162863780861,0.00866591170343,0.406383599782,1.0,0.0,0.00455910013989
1437512288258203983,0.000448831840185,0.00237518429058,0.400153130054,1.0,0.0,0.00460469117388
1437512288278072118,0.0005439669927,0.00725898958917,0.427763277268,1.0,0.0,0.00462275277823
1437512288298105955,0.000426619867358,0.00756595354178,0.421206079906,1.0,0.0,0.00466898037121
1437512288318516969,-0.000304863246129,0.0086184668151,0.428585257518,1.0,0.0,0.00478808674961
1437512288338155031,-0.00158710125179,0.00760226752609,0.422015071559,1.0,0.0,0.00483596744016
1437512288358046054,0.000611611035856,0.0101122155422,0.427698208553,1.0,0.0,0.00458247773349
1437512288378127098,0.00109913172346,0.00974303279072,0.428026492029,1.0,0.0,0.00460601318628
1437512288398019075,0.000836213718139,0.00954353734851,0.421464182144,1.0,0.0,0.00465207314119
1437512288418101072,-0.000791785783258,0.0108445340677,0.428416785634,1.0,0.0,0.00470418436453
1437512288438339948,-0.00156343504204,0.0133469258639,0.42855939948,1.0,0.0,0.00449821259826
1437512288458115100,-0.00155407981802,0.0126921530631,0.421988320166,1.0,0.0,0.0045431945473
1437512288478115081,-0.000241891392943,0.0122383585109,0.429101050937,1.0,0.0,0.00455370824784
1437512288498121023,-0.000296825537953,0.0111897088542,0.430144948047,1.0,0.0,0.00473461765796
1437512288518091917,-0.000579670071602,0.0102107694373,0.423549019843,1.0,0.0,0.00478196376935
1437512288538399934,-0.00129879639062,0.0133816642687,0.431066119409,1.0,0.0,0.00464022206143
1437512288558095932,-0.00274975274078,0.0104235149738,0.424455679268,1.0,0.0,0.00468662427738
1437512288578094959,-0.00270337637048,0.00918124385353,0.431475454003,1.0,0.0,0.00489036180079
1437512288598093986,-0.00246620221296,0.00943217605527,0.431313077122,1.0,0.0,0.00488810474053
1437512288618141889,-0.000858202944619,0.00807901140215,0.424698233116,1.0,0.0,0.00493698567152
1437512288638185977,-0.000340835624593,0.00722051467746,0.431760580862,1.0,0.0,0.00499199843034
1437512288658109903,-0.000735508051002,0.00905382443307,0.43214508484,1.0,0.0,0.00487510953099
1437512288678251981,-0.000253322752178,0.00674443687894,0.42551687572,1.0,0.0,0.00492386054248
1437512288698390960,-0.000878880962318,0.0105035776091,0.43264427532,1.0,0.0,0.00472505483776
1437512288718396902,-0.000809085555375,0.0104258105523,0.426008014554,1.0,0.0,0.00477230548859
1437512288738208055,-0.000116767902364,0.0072124191036,0.419472833329,1.0,0.0,0.00482002831995
1437512288758622884,-0.000228683865134,0.00772727518925,0.413037188828,1.0,0.0,0.00486822845414
1437512288778083086,-0.000957742065657,0.00768396712665,0.406699537015,1.0,0.0,0.00491691054776
1437512288798094987,0.00174023665313,0.0119438953698,0.433650284058,1.0,0.0,0.00469647580758
1437512288818048000,0.000606956765114,0.0135475813207,0.435118400437,1.0,0.0,0.00474242446944
1437512288838100910,0.000478122646018,0.0114844508378,0.428443115616,1.0,0.0,0.00478984881192
1437512288858139038,0.00252222437703,0.0110251596197,0.435117764413,1.0,0.0,0.00490434421226
1437512288878110885,0.00375468354905,0.0121079994729,0.436010903692,1.0,0.0,0.00474778842181
1437512288898135900,0.00395159164909,0.00879201695498,0.429321343875,1.0,0.0,0.00479526631534
1437512288918097019,0.00535759628692,0.00883438173769,0.437446671098,1.0,0.0,0.00503394799307
1437512288938196897,0.00466566055256,0.00886293027725,0.430734776849,1.0,0.0,0.00508428737521
1437512288958071947,0.00364365110872,0.0130373891807,0.437317791587,1.0,0.0,0.00484973518178
1437512288978086948,0.00319831842207,0.0123196417648,0.430607418215,1.0,0.0,0.00489823240787
1437512288998111963,0.000362444170605,0.00773230898776,0.423999237436,1.0,0.0,0.00494721485302
1437512289018090009,0.00125146528517,0.00897467624309,0.437171745199,1.0,0.0,0.00494810240343
1437512289038167953,0.00117222340923,0.00930547241296,0.430462955952,1.0,0.0,0.00499758357182
1437512289058152914,0.00203844797506,0.00757191495795,0.438991882116,1.0,0.0,0.00511316722259
1437512289078211069,0.000659369481582,0.00655005231674,0.432254891658,1.0,0.0,0.00516429869458
1437512289098071098,-0.0027229597632,0.0112515045353,0.439117480516,1.0,0.0,0.00497275125235
1437512289118100881,-0.00381161938421,0.0110130531736,0.438765708429,1.0,0.0,0.0050642574206
1437512289138138055,-0.002845204396,0.0106508214004,0.432031498677,1.0,0.0,0.00511489994824
1437512289158174991,-0.00264516126481,0.0082846393605,0.439459101838,1.0,0.0,0.00518331490457
1437512289178107023,-0.00197643393258,0.00865058004856,0.432713884264,1.0,0.0,0.00523514812812
1437512289198148965,-0.00206239843974,0.0104176418947,0.439743561757,1.0,0.0,0.00511949369684
1437512289218172073,-0.00192993644087,0.00763260897074,0.432993567336,1.0,0.0,0.00517068849877
1437512289238174915,-0.00158482050319,0.00766345139418,0.426346380609,1.0,0.0,0.00522239552811
1437512289258078098,-0.00541299726465,0.0125432537869,0.440109750915,1.0,0.0,0.0051073692739
1437512289278064966,-0.00459897039109,0.0118789375396,0.433353518569,1.0,0.0,0.00515844300389
1437512289298156976,-0.00223876958626,0.0112187262647,0.440605736464,1.0,0.0,0.00501385144889
1437512289318073034,-0.00218328277115,0.0109265254812,0.433841498601,1.0,0.0,0.00506399013102
1437512289338212966,-0.00368814655958,0.014389683606,0.441595301336,1.0,0.0,0.00493880640715
1437512289358059883,-0.00398018970445,0.0141075491541,0.441997622091,1.0,0.0,0.00490634841844
1437512289378385066,-0.00379816197237,0.0133294964937,0.435211492389,1.0,0.0,0.00495541188866
1437512289398516893,-0.00301367633365,0.0113475400023,0.428528739822,1.0,0.0,0.00500496616587
1437512289418457031,-0.00375513811741,0.014851940496,0.442510934079,1.0,0.0,0.0049707191065
1437512289438345909,-0.00352907333581,0.0139244007674,0.435716338599,1.0,0.0,0.00502042612061
1437512289458192110,-0.00182831116399,0.0122596994224,0.442904634631,1.0,0.0,0.00500582857057
1437512289478091955,-0.00216234785039,0.0121129857558,0.436103603208,1.0,0.0,0.0050558866933
1437512289498397111,0.00105746820918,0.00844287948858,0.443614245784,1.0,0.0,0.00525937136263
1437512289518189907,0.00153498250002,0.00902406375681,0.445466191971,1.0,0.0,0.00536480732262
1437512289538158893,0.00234447149851,0.00591826291929,0.438625415593,1.0,0.0,0.00541845522821
1437512289558105945,0.00389489313529,0.00696336047549,0.446391164994,1.0,0.0,0.00535946153104
1437512289578100919,0.00305823516683,0.00757160484791,0.439535831231,1.0,0.0,0.00541305635124
1437512289598115921,0.00136617938697,0.00847926179122,0.447002007556,1.0,0.0,0.00541355554014
1437512289618077993,-0.000374191848096,0.00925965104252,0.447470754659,1.0,0.0,0.0050472789444
1437512289638106107,-0.000702915929833,0.00968592617573,0.440598278528,1.0,0.0,0.00509775150567
1437512289658130884,0.000958237473969,0.00798854438763,0.448002443212,1.0,0.0,0.00528276385739
1437512289678112983,0.000668830604991,0.00830081913446,0.44112143718,1.0,0.0,0.00533559126779
1437512289698210954,-0.00261669499887,0.0121585953981,0.448602936798,1.0,0.0,0.00512119941413
1437512289718331098,-0.00293797785416,0.0112479104842,0.44171233108,1.0,0.0,0.00517241144553
1437512289738570928,-0.00245301986142,0.0108731441109,0.434926669568,1.0,0.0,0.00522413570434
1437512289758124113,-0.00394083061838,0.0164148083364,0.449401821572,1.0,0.0,0.00473186606541
1437512289778136014,-0.00311235530244,0.0152483193611,0.442498380345,1.0,0.0,0.00477918470278
1437512289798166990,-0.00369449299615,0.0164522640815,0.450641749161,1.0,0.0,0.00481164874509
1437512289818099975,-0.00134469815785,0.0119997078917,0.443718927836,1.0,0.0,0.00485976506025
1437512289838140964,0.000909176608548,0.0122756410208,0.451093801284,1.0,0.0,0.0050255083479
1437512289858057975,-0.00407031118521,0.0158970255812,0.45143949095,1.0,0.0,0.0047549335286
1437512289878118038,-0.00351927835436,0.0148890803772,0.444503848195,1.0,0.0,0.00480248266831
1437512289898098945,-0.00214494818865,0.0156627725402,0.451211465716,1.0,0.0,0.00471536815166
1437512289918107986,-0.00216647809793,0.0150927199778,0.444278867787,1.0,0.0,0.00476252194494
1437512289938052892,-0.00221799965802,0.0144962850958,0.437451850826,1.0,0.0,0.00481014698744
1437512289958121061,-0.00131723584818,0.0110129270703,0.452462950683,1.0,0.0,0.00474443985149
1437512289978144884,-0.0015575364414,0.0113966176309,0.445510603631,1.0,0.0,0.00479188421741
1437512289998334884,-0.00162150664255,0.0124331331062,0.452622795987,1.0,0.0,0.00479686073959
1437512290018150091,-0.00180386026477,0.0126591857523,0.445667581391,1.0,0.0,0.00484482944012
1437512290038089990,-0.00217010161796,0.0142719840631,0.452744335747,1.0,0.0,0.00481628673151
1437512290058418989,0.000988887288258,0.00992100503208,0.445786821866,1.0,0.0,0.0048644496128
1437512290078175067,0.00125050231727,0.0127878881991,0.453336466038,1.0,0.0,0.00490500731394
1437512290098171949,0.000242352851637,0.00827009864151,0.454143899983,1.0,0.0,0.0049871657975
1437512290118088006,5.60317930649e-06,0.00889126334514,0.447164378613,1.0,0.0,0.00503703765571
1437512290138076066,-0.0012242707915,0.0111214138562,0.454492340207,1.0,0.0,0.00501917535439
1437512290158067941,-0.000788199005751,0.00840966965916,0.455057787532,1.0,0.0,0.00512967864051
1437512290178107976,-0.000829455815114,0.00855193460447,0.448063672221,1.0,0.0,0.00518097542226
1437512290198084115,0.000653707583842,0.00602691755048,0.441176093835,1.0,0.0,0.00523278536275
1437512290218105077,0.000421922776877,0.00658082649461,0.434393418407,1.0,0.0,0.00528511311859
1437512290238097906,-0.000966668671572,0.00785677567474,0.457005944556,1.0,0.0,0.00510036526248
1437512290258068084,-0.00106886078393,0.00838731581171,0.449981252748,1.0,0.0,0.00515136914328
1437512290278074979,-0.000945148230312,0.0117082752378,0.456549577397,1.0,0.0,0.00473743118346
1437512290298043012,-0.000220539123256,0.0120655575767,0.449531409776,1.0,0.0,0.00478480570018
1437512290318145036,-0.000175935062362,0.011517590666,0.442620142937,1.0,0.0,0.00483265379444
1437512290338053941,0.00073297774652,0.00957062875896,0.435814143199,1.0,0.0,0.00488098012283
1437512290358215093,-0.00117424278997,0.0140601067236,0.457107171232,1.0,0.0,0.00480439700186
1437512290378076076,-0.00112597013813,0.0132987295481,0.450079646695,1.0,0.0,0.00485244113952
1437512290398078918,-0.00100851227535,0.0159984450787,0.457494615698,1.0,0.0,0.00475369533524
1437512290418073892,-0.000839330430324,0.0147791303287,0.450460744935,1.0,0.0,0.00480123236775
1437512290438082933,-0.000602181172053,0.0161551696772,0.458368771267,1.0,0.0,0.00455718534067
1437512290458214044,-0.000638961552067,0.0150988323207,0.451321117121,1.0,0.0,0.00460275728256
1437512290478108882,-0.00197607895316,0.0142864198628,0.459066846555,1.0,0.0,0.00453508039936
1437512290498090982,-0.00415502797405,0.0239749130909,0.459974954581,1.0,0.0,0.00359374238178
1437512290518098115,-0.00371158953931,0.0224515365437,0.452902131492,1.0,0.0,0.00362967979163
1437512290538137912,-0.00181308391184,0.0259449208388,0.459478407329,1.0,0.0,0.00362001452595
1437512290558111906,-0.000413002487767,0.019528045773,0.452412723422,1.0,0.0,0.00365621456876
1437512290578128099,-0.00193000529471,0.023846687522,0.46107614103,1.0,0.0,0.00366195687093
1437512290598072052,-0.00189799074869,0.0195110642468,0.453985644108,1.0,0.0,0.00369857647456
1437512290618065118,-0.00178355554817,0.0188872531464,0.447003138912,1.0,0.0,0.0037355623208
1437512290638071060,-0.00242506357754,0.021636223502,0.461740647644,1.0,0.0,0.00361516745761
1437512290658057928,-0.00221194039186,0.0207866598328,0.45463936258,1.0,0.0,0.00365131907165
1437512290678055047,-0.00134030188456,0.0157114129106,0.447646252143,1.0,0.0,0.00368783227168
1437512290698107957,0.000637720726081,0.00644899163744,0.440759659797,1.0,0.0,0.00372471055016
1437512290718060016,0.000161401584774,0.00810775168065,0.433977951556,1.0,0.0,0.00376195763238
1437512290738238096,-0.00233178847193,0.0124345388354,0.463750803256,1.0,0.0,0.00377383991145
1437512290758064031,-0.00223919293057,0.0136121582422,0.456617784196,1.0,0.0,0.00381157826632
1437512290778132915,0.00184753158392,0.00429879474686,0.462111953837,1.0,0.0,0.00455719977617
1437512290798116922,0.00254917177954,0.00702626362618,0.462289160907,1.0,0.0,0.0044117490761
1437512290818068981,0.00207600771973,0.00817240983597,0.455177800488,1.0,0.0,0.00445586675778
1437512290838191986,0.0020075265842,0.00425835311762,0.463382591212,1.0,0.0,0.00433051493019
1437512290858212947,0.00154761120648,0.00593274783168,0.456254105467,1.0,0.0,0.00437382003292
1437512290878072023,0.000751929359103,0.00856259610155,0.465159935892,1.0,0.0,0.00432042870671
1437512290898073911,-0.000331900790115,0.0118834555149,0.465883945841,1.0,0.0,0.00417465437204
1437512290918088912,-0.000236940122704,0.0111744506285,0.458716646844,1.0,0.0,0.00421640090644
1437512290938447952,1.62228992849e-05,0.00616339165717,0.465906389779,1.0,0.0,0.00423010345548
1437512290958081960,-0.000215357518755,0.00670243244967,0.458738315588,1.0,0.0,0.00427240459248
1437512290978071928,-0.00274351388507,0.01293790454,0.46637400896,1.0,0.0,0.0043162452057
1437512290998040914,-0.00321294613823,0.0111637406051,0.45919835977,1.0,0.0,0.00435940781608
1437512291018083095,-0.00281925670715,0.013620996548,0.466946009821,1.0,0.0,0.0043151974678
1437512291038502931,-0.00214490522485,0.0111632332297,0.459761193806,1.0,0.0,0.00435834936798
1437512291058420896,-0.00159011269134,0.0126619297829,0.467138171256,1.0,0.0,0.00437148427591
1437512291078479051,-0.000904346210882,0.0107351697618,0.459949987996,1.0,0.0,0.00441519916058
1437512291098130941,0.000367136161367,0.0112120412381,0.467474437165,1.0,0.0,0.00430858321488
1437512291118027925,0.000291002274025,0.0111215770336,0.460280680698,1.0,0.0,0.00435166899115
1437512291138158082,0.000657309987582,0.00933914110065,0.453196509355,1.0,0.0,0.00439518550411
1437512291158303022,0.00171413466305,0.0125010009946,0.468518267775,1.0,0.0,0.00428178813308
1437512291178141117,0.00153340600955,0.0108041374013,0.461307949054,1.0,0.0,0.00432460615411
1437512291198054075,0.00108488818951,0.0108623888344,0.454207441539,1.0,0.0,0.00436785211787
1437512291218327999,0.000798195401876,0.0135844060787,0.469428507268,1.0,0.0,0.00407193088904
1437512291238259077,0.000424440774077,0.0133947176677,0.462203649408,1.0,0.0,0.00411265017465
1437512291258084058,-0.000317520634053,0.0146653031203,0.470118581265,1.0,0.0,0.00398132950068
1437512291278099060,-0.00044256680867,0.0142585583395,0.46288276062,1.0,0.0,0.00402114260942
1437512291298091888,-0.000691064004769,0.0117325065635,0.471066118962,1.0,0.0,0.00423933565617
1437512291318159103,-1.48200779222e-05,0.0110894920304,0.471283117276,1.0,0.0,0.00443792855367
1437512291338376045,1.43243549246e-05,0.0109377307726,0.464028859222,1.0,0.0,0.004482307937
1437512291358102083,-0.00185593325223,0.0115736721129,0.471614738017,1.0,0.0,0.00428371224552
1437512291378190040,-0.00147355350709,0.011507655871,0.464354998296,1.0,0.0,0.00432654935867
1437512291398049116,-0.00198716094528,0.0130894260481,0.472719470209,1.0,0.0,0.00423162896186
1437512291418456077,-0.00177124990805,0.011282114144,0.472550977427,1.0,0.0,0.00411573331803
1437512291438081979,-0.00148904628586,0.01135670187,0.465276279587,1.0,0.0,0.00415689079091
1437512291458056926,-0.000948701333255,0.00812472533435,0.458112394375,1.0,0.0,0.00419845990837
1437512291478060007,-0.00154604248746,0.0122203571767,0.473279268509,1.0,0.0,0.00412786286324
1437512291498086929,-0.00149292805909,0.0114959431812,0.465992829555,1.0,0.0,0.00416914140806
1437512291518301010,-0.00271953947667,0.0144077319652,0.473335726571,1.0,0.0,0.00411075958982
1437512291538130998,-0.00241465827276,0.0138767386219,0.466047990292,1.0,0.0,0.00415186723694
1437512291558037996,-0.00138079877688,0.0126424495131,0.474101874101,1.0,0.0,0.0041918894276
1437512291578044891,-0.00141115272672,0.0123583167609,0.466802015716,1.0,0.0,0.00423380825669
1437512291598212957,-0.00190216887277,0.0154560661351,0.474577016342,1.0,0.0,0.0040652663447
1437512291618096113,-0.00175793373637,0.0120039219036,0.467269470203,1.0,0.0,0.00410591904074
1437512291638094902,-0.00173649241406,0.0117638677359,0.460073237306,1.0,0.0,0.00414697825909
1437512291658101081,-0.00183904838559,0.0156279887276,0.475642034823,1.0,0.0,0.00400979816914
1437512291678200960,-0.00113731433848,0.0115416364562,0.468317584771,1.0,0.0,0.00404989626259
1437512291698210954,-0.0011627246884,0.011447688015,0.461104697633,1.0,0.0,0.0040903952904
1437512291718149900,0.00324964763713,0.0111102788142,0.476634591043,1.0,0.0,0.00431514810771
1437512291738234043,0.00260816368682,0.0112790435371,0.469294351578,1.0,0.0,0.00435829954222
1437512291758119106,0.00107198371697,0.0111141366793,0.477734664094,1.0,0.0,0.00432754214853
1437512291778107881,0.00081134203283,0.0111091589555,0.470377207744,1.0,0.0,0.00437081744894
1437512291798116922,0.00251771561307,0.00819007355894,0.478096881205,1.0,0.0,0.00446122605354
1437512291818017959,0.00204472576879,0.00879789270548,0.470733464986,1.0,0.0,0.00450583826751
1437512291838207006,-0.000151759949949,0.0100916545111,0.478571602774,1.0,0.0,0.00459279632196
1437512291858156919,-0.000177484186861,0.00654692474927,0.471200497907,1.0,0.0,0.00463872449473
1437512291878055095,0.000223454601655,0.0102172326115,0.479381918108,1.0,0.0,0.00444052228704
1437512291898058891,8.31673787616e-05,0.0102055039257,0.47199800778,1.0,0.0,0.00448492728174
1437512291918095111,-0.00328845104377,0.00828847170051,0.464726569873,1.0,0.0,0.0045297765173
1437512291938106060,-0.00258742454753,0.00846074596047,0.457565903509,1.0,0.0,0.00457507418469
1437512291958142042,0.000565416189784,0.00861126281234,0.480504781926,1.0,0.0,0.00463285623118
1437512291978018045,0.000608677398122,0.0087413210058,0.473102897114,1.0,0.0,0.00467918487266
1437512291998094081,-0.00013253063662,0.00758364759386,0.465813757575,1.0,0.0,0.00472597684711
1437512292018182992,-0.002180146303,0.0121231820252,0.480515878677,1.0,0.0,0.00449031358585
1437512292038117885,-0.000162924048709,0.01066023413,0.473113167804,1.0,0.0,0.00453521683812
1437512292058204889,0.000338991161698,0.011544585789,0.48146101836,1.0,0.0,0.00467942655087
1437512292078097105,-0.000213998005711,0.00837816983549,0.474043456411,1.0,0.0,0.00472622085363
1437512292098110914,0.000304300082644,0.00977740634407,0.481742992336,1.0,0.0,0.0047670500353
1437512292118129014,0.000276359742566,0.00968308761803,0.474320699489,1.0,0.0,0.0048147207126
1437512292138175964,-0.000927502014565,0.011727612661,0.483329504699,1.0,0.0,0.00469726789743
1437512292158472061,-0.00255375065608,0.00952109068458,0.475882557827,1.0,0.0,0.00474424054846
1437512292178133010,-0.00220831092156,0.00930008038704,0.468549061978,1.0,0.0,0.00479168305174
1437512292198199033,-0.00189756644104,0.0091169405001,0.461327269322,1.0,0.0,0.00483960006386
1437512292218101024,-0.000163554070969,0.011174036199,0.484222584069,1.0,0.0,0.00454117637128
1437512292238094091,-0.000363595725503,0.0111107317776,0.476761164612,1.0,0.0,0.00458658812568
1437512292258128881,0.000348639098956,0.0116274582245,0.484707994151,1.0,0.0,0.0046304659918
1437512292278177976,0.000341324425972,0.0114563470729,0.477238726968,1.0,0.0,0.00467677041888
1437512292298135995,-0.000190484507584,0.0136239487314,0.485571006894,1.0,0.0,0.0045196195133
1437512292318095922,-0.000143052422209,0.0130490556723,0.478088138568,1.0,0.0,0.00456481566653
1437512292338165044,0.00243715904508,0.0091415124014,0.484893503034,1.0,0.0,0.00495089031756
1437512292358175039,0.00206727824698,0.00926851186814,0.477420525843,1.0,0.0,0.00500039942563
1437512292378232002,0.00157472845021,0.00915928728791,0.470061410373,1.0,0.0,0.00505040353164
1437512292398134946,0.00157608740265,0.0138079266995,0.485094418943,1.0,0.0,0.00478066504002
1437512292418121099,0.00163523757219,0.00756659172475,0.477617753541,1.0,0.0,0.00482847169042
1437512292438240051,0.00355124764028,0.00788604039699,0.48611182003,1.0,0.0,0.00494308676571
1437512292458127021,0.00212201829272,0.00662570672284,0.478619189608,1.0,0.0,0.00499251764268
1437512292478120088,0.0013384519174,0.00741952031676,0.488141548073,1.0,0.0,0.00507954601198
1437512292498143911,0.00126914035209,0.00438042170135,0.480617510056,1.0,0.0,0.00513034127653
1437512292518039941,0.00232990486984,0.00754217184731,0.488279062641,1.0,0.0,0.00502526201308
1437512292538100004,0.000471294865929,0.00916971584957,0.480752475327,1.0,0.0,0.00507551478222
1437512292558135986,-0.000482010445558,0.0124094527579,0.489215263849,1.0,0.0,0.00483079673722
1437512292578145027,-0.000224822044947,0.011924229376,0.481673961341,1.0,0.0,0.00487910490483
1437512292598119974,-0.000494683794568,0.00891896586691,0.489111945236,1.0,0.0,0.00491620320827
1437512292618168115,-0.000277494817328,0.00928503706964,0.481571802181,1.0,0.0,0.00496536539868
1437512292638077974,-0.00194243026344,0.00892669372261,0.474146520072,1.0,0.0,0.00501501886174
1437512292658099889,-0.00136810484109,0.00870335228828,0.466834352189,1.0,0.0,0.0050651691854
1437512292678205966,-0.000494538129533,0.00803661530663,0.459633574295,1.0,0.0,0.00511582102627
1437512292698142051,-0.00159080304293,0.0118261893847,0.490747796774,1.0,0.0,0.00496677169576
1437512292718137979,-0.00235925339657,0.00890129197214,0.48318163268,1.0,0.0,0.00501643959433
1437512292738116979,-0.00495289092069,0.0196224256535,0.491747949386,1.0,0.0,0.00426721572876
1437512292758069992,-0.00334938326851,0.015352448562,0.484166092175,1.0,0.0,0.00430988799781
1437512292778156995,-0.00286300721637,0.0184031535755,0.492064187616,1.0,0.0,0.00434132665396
1437512292798166990,-0.0024823712025,0.0160813116265,0.484477052033,1.0,0.0,0.00438473979011
1437512292818133115,-0.00340663942334,0.0180011886696,0.493181525904,1.0,0.0,0.0044357990846
1437512292838217020,-0.0030551226213,0.0168807649985,0.48557689994,1.0,0.0,0.00448015704751
1437512292858069896,-0.00500219008536,0.0202334228903,0.494177330744,1.0,0.0,0.00433467887342
1437512292878165006,-0.00458019604557,0.0188007893448,0.48655707922,1.0,0.0,0.00437802588567
1437512292898103952,-0.00252581485547,0.0172278570419,0.495171410877,1.0,0.0,0.00449357414618
1437512292918112039,-0.00240286620974,0.0164475360885,0.487535555899,1.0,0.0,0.00453850999475
1437512292938123941,0.000340330793551,0.00583416432492,0.480016016167,1.0,0.0,0.00458389520645
1437512292958071947,-0.00139216047501,0.014601171462,0.495829053861,1.0,0.0,0.00420764088631
1437512292978075981,-0.0017058677804,0.0113500572559,0.488182524514,1.0,0.0,0.00424971710891
1437512292998152017,0.000798529353051,0.0102668047133,0.49665488652,1.0,0.0,0.00470563163981
1437512293018178939,0.00147153929574,0.00819338154397,0.488995323557,1.0,0.0,0.00475268810987
1437512293038152933,0.000970312656864,0.00905481830414,0.481452439803,1.0,0.0,0.00480021489784
1437512293058168888,0.00239588551631,0.0108940583086,0.49744241848,1.0,0.0,0.00450652837753
1437512293078196048,0.00162891351792,0.0116686565824,0.489770178801,1.0,0.0,0.00455159367993
1437512293098177909,-2.65601764113e-05,0.0118760406926,0.496689549196,1.0,0.0,0.00445980671793
1437512293118107080,-0.00027269079128,0.0122426986512,0.489028360045,1.0,0.0,0.00450440496206
1437512293138086080,0.00217016315291,0.0149158147367,0.496530874968,1.0,0.0,0.00446790456772
1437512293158150911,0.00300752597686,0.00724041990761,0.488871686971,1.0,0.0,0.00451258383691
1437512293178183078,0.000883292789513,0.0114875324025,0.497381821394,1.0,0.0,0.00444050645456
1437512293198138952,-0.00166298127733,0.0127394009382,0.489709215122,1.0,0.0,0.00448491144925
1437512293218203067,-0.00224361064611,0.0157184205949,0.497998460627,1.0,0.0,0.00428382446989
1437512293238033056,-0.00184832696832,0.0147494650242,0.49031600616,1.0,0.0,0.00432666251436
1437512293258065938,-0.00218955409946,0.0135165598607,0.498786679596,1.0,0.0,0.00417864508927
1437512293278188943,-0.00170343502105,0.0130693249223,0.491091761613,1.0,0.0,0.00422043167055
1437512293298134088,-0.00239846163895,0.0130596566945,0.499417826837,1.0,0.0,0.00431787315756
1437512293318119049,-0.00212997158524,0.012760805861,0.491712832665,1.0,0.0,0.00436105206609
1437512293338022947,-0.00363651537482,0.0139483339721,0.499967255992,1.0,0.0,0.00426084455103
1437512293358104944,-0.00300517944124,0.0138552731267,0.492253460479,1.0,0.0,0.00430345302448
1437512293378109931,-0.000924041919643,0.00983294125472,0.484657163376,1.0,0.0,0.004346487578
1437512293398133039,-0.000520623460125,0.012599341962,0.500539933604,1.0,0.0,0.00444730510935
1437512293418114900,0.000113798569873,0.00945164810691,0.492816738927,1.0,0.0,0.0044917780906
1437512293438133955,1.48374943819e-05,0.0130089452308,0.501317648232,1.0,0.0,0.00434427941218
1437512293458051919,0.000391693552956,0.00953048277734,0.493582149261,1.0,0.0,0.00438772235066
1437512293478482007,-0.00290857076179,0.0147039969655,0.50142436074,1.0,0.0,0.00414371909574
1437512293498135089,-0.0013612474806,0.0121374800892,0.493686815125,1.0,0.0,0.00418515643105
1437512293518126010,-0.00144608762348,0.0120589789003,0.486067132187,1.0,0.0,0.00422700820491
1437512293538213014,-0.00167235562767,0.0127668073492,0.502213675201,1.0,0.0,0.00420740433037
1437512293558154106,-0.00184571503851,0.0127047274262,0.494463434088,1.0,0.0,0.00424947822466
1437512293578115940,-0.00269442888675,0.0142340153092,0.503387534016,1.0,0.0,0.00436695292592
1437512293598212957,-0.00266890020575,0.011195743829,0.495618939197,1.0,0.0,0.00441062264144
1437512293618104934,-0.0024166583331,0.0111815586777,0.487968708402,1.0,0.0,0.00445472868159
1437512293638149023,-0.00225049081637,0.0081659527903,0.480435026085,1.0,0.0,0.00449927616864
1437512293658205986,-0.00198929481994,0.00853817105381,0.473016122991,1.0,0.0,0.00454426882789
1437512293678111076,0.00094178714935,0.00421268683276,0.465710228467,1.0,0.0,0.00458971131593
1437512293698132991,0.00291293171176,0.00657913047471,0.505144157934,1.0,0.0,0.00477037997916
1437512293718101978,0.00244764672389,0.007038558161,0.497347504026,1.0,0.0,0.00481808371842
1437512293738126993,-0.000192669830722,0.0106650885558,0.506171232975,1.0,0.0,0.00438050506637
1437512293758169889,-0.000337834440143,0.0107247395259,0.498358476716,1.0,0.0,0.00442431028932
1437512293778062105,0.000181214190525,0.00937410939659,0.490664743012,1.0,0.0,0.00446855323389
1437512293798182010,-8.04895120382e-05,0.0122297991158,0.507394371861,1.0,0.0,0.00444516725838
1437512293818082094,-0.000340807514294,0.0119529303163,0.49956230036,1.0,0.0,0.00448961881921
1437512293838139057,-0.00197632826021,0.0165036010032,0.50771045177,1.0,0.0,0.00422008475289
1437512293858082056,-0.00198480984618,0.0154387554154,0.499873125273,1.0,0.0,0.00426228577271
1437512293878062963,-0.000631338068024,0.0147225873137,0.507944939733,1.0,0.0,0.0045610726811
1437512293898085117,-0.00254820883565,0.0122567806757,0.500103609675,1.0,0.0,0.00460668327287
1437512293918107986,-0.00359269870823,0.0190143623273,0.508711936301,1.0,0.0,0.00412589777261
1437512293938225030,-0.00127383728468,0.0117126204028,0.500858460367,1.0,0.0,0.00416715675965
1437512293958234071,-0.00196822282014,0.0130966143501,0.50986163134,1.0,0.0,0.00428868737072
1437512293978060007,-0.0017810588688,0.0126777223879,0.501990188038,1.0,0.0,0.00433157430962
1437512293998060941,-0.000129439611919,0.0121340753602,0.509724745762,1.0,0.0,0.00443407613784
1437512294018101930,-0.000124130053882,0.0119738418518,0.501854961205,1.0,0.0,0.00447841687128
1437512294038105964,0.000223260447819,0.0129131087851,0.510245675826,1.0,0.0,0.00424259994179
1437512294058136940,1.62006908795e-06,0.013089485839,0.502367497802,1.0,0.0,0.00428502587602
1437512294078149080,-0.00136642439102,0.0129729691893,0.494609343272,1.0,0.0,0.00432787602767
1437512294098130941,0.000420565362583,0.0150177204574,0.5112173114,1.0,0.0,0.00444835843518
1437512294118212938,0.00153462447925,0.0079571692273,0.503323662478,1.0,0.0,0.00449284212664
1437512294138160943,0.00100802497327,0.00894693575974,0.495550263989,1.0,0.0,0.00453777052462
1437512294158224105,-0.00089750762549,0.0127081178129,0.51130435456,1.0,0.0,0.00424435967579
1437512294178200006,-0.000993062842281,0.0125682309361,0.503408720452,1.0,0.0,0.00428680330515
1437512294198141098,-0.0010408583259,0.011741136387,0.511671112829,1.0,0.0,0.00434763962403
1437512294218099117,-0.0009360257769,0.0116169676184,0.50376945194,1.0,0.0,0.00439111609012
1437512294238087892,0.00112700657919,0.00540015991428,0.51243939786,1.0,0.0,0.00487477472052
1437512294258096933,0.00102580172388,0.00607477403828,0.504525593078,1.0,0.0,0.00492352247238
1437512294278069019,0.000913369563932,0.00669003851363,0.496732358104,1.0,0.0,0.00497275777161
1437512294298115015,-0.00117980607065,0.00708822529414,0.512845848334,1.0,0.0,0.0049366755411
1437512294318048000,0.000465485197492,0.00861468549992,0.513006105065,1.0,0.0,0.00491989078
1437512294338114023,0.000563297192275,0.008429192529,0.505082774991,1.0,0.0,0.00496908975765
1437512294358117103,0.00239608508709,0.00785508274857,0.513667640376,1.0,0.0,0.00470174755901
1437512294378094911,0.00203555979388,0.00822708707128,0.505733780897,1.0,0.0,0.00474876491353
1437512294398138999,0.000568936758646,0.00746252261451,0.497920810509,1.0,0.0,0.00479625258595
1437512294418080091,0.000402214260248,0.0077843926847,0.490226867932,1.0,0.0,0.00484421523288
1437512294438184976,-0.000781547317638,0.00930888455187,0.48265013814,1.0,0.0,0.00489265751094
1437512294458095073,-0.00325341215357,0.0160751483199,0.514910355508,1.0,0.0,0.00442875176668
1437512294478060007,-0.00279024748452,0.0148543836549,0.506956507266,1.0,0.0,0.00447303941473
1437512294498223066,-0.0020643031341,0.0123735765177,0.499123819536,1.0,0.0,0.00451776990667
1437512294518105983,-0.00323608716717,0.0109437424644,0.491410478973,1.0,0.0,0.00456294743344
1437512294538496971,-0.00282320360275,0.0105613466352,0.483814646941,1.0,0.0,0.00460857711732
1437512294558090925,-0.0027123215812,0.0201282088528,0.516839134693,1.0,0.0,0.00388939143158
1437512294578092098,-0.0021739611766,0.0186237893184,0.508854789186,1.0,0.0,0.00392828555778
1437512294598051071,-0.00173134155848,0.0173272504675,0.500992082089,1.0,0.0,0.00396756827831
1437512294618052959,-0.00148540596856,0.016100288782,0.493249176574,1.0,0.0,0.00400724401698
1437512294638097047,-0.000994898222962,0.0183545254171,0.517567534041,1.0,0.0,0.00433545000851
1437512294658157110,0.0013721415351,0.0108024940258,0.509571221411,1.0,0.0,0.00437880447134
1437512294678147077,0.00089393179951,0.0111742783338,0.501696753186,1.0,0.0,0.00442259246483
1437512294698216915,-0.000434900363689,0.0159368329158,0.518522047353,1.0,0.0,0.00430713035166
1437512294718067884,-0.000596443472841,0.0153560102393,0.510510539502,1.0,0.0,0.00435020169243
1437512294738265991,-2.55394312262e-05,0.0179122151807,0.519331104612,1.0,0.0,0.00441941386089
1437512294758074045,0.000143217683944,0.00519331068499,0.51130681566,1.0,0.0,0.00446360791102
1437512294778089046,3.23738786392e-05,0.00894953675743,0.520041650736,1.0,0.0,0.00438291812316
1437512294798156023,-0.000183188221854,0.00978993281897,0.512006081343,1.0,0.0,0.00442674709484
1437512294818073987,-0.000331762760288,0.0104054385796,0.504092947024,1.0,0.0,0.00447101471946
1437512294838140964,-0.000692911331953,0.00792533706699,0.496300363857,1.0,0.0,0.0045157247223
1437512294858073949,-0.00269986721541,0.0154745512438,0.520518352234,1.0,0.0,0.00417892308906
1437512294878103971,-0.00226024223957,0.0147944784519,0.512474659401,1.0,0.0,0.0042207124643
1437512294898205995,-0.00287140845612,0.019278998673,0.521417435801,1.0,0.0,0.00366945494898
1437512294918123006,-0.00258994507458,0.0186769031396,0.513359598088,1.0,0.0,0.00370614952408
1437512294938083887,-0.00308645600453,0.0152650996679,0.505424512982,1.0,0.0,0.00374321104027
1437512294958058118,-0.00214075586991,0.0186571349273,0.522560569358,1.0,0.0,0.00393613893539
1437512294978079080,-0.00204044429775,0.0150010060883,0.514484647465,1.0,0.0,0.00397550035268
1437512294998176097,-0.0001154524507,0.0125168221071,0.522021469676,1.0,0.0,0.0044066417031
1437512295018080949,-0.000124617157053,0.0120688701048,0.513953325194,1.0,0.0,0.00445070816204
1437512295038382053,-0.000146603816393,0.0117334069684,0.506008116937,1.0,0.0,0.00449521513656
1437512295058072090,0.000328159355558,0.0116254471242,0.523159811562,1.0,0.0,0.00429311348125
1437512295078212022,2.23223403736e-05,0.0118450211338,0.515073652297,1.0,0.0,0.00433604465798
1437512295098249912,0.00136221457215,0.00403734822175,0.507110701913,1.0,0.0,0.0043794051744
1437512295118093013,0.0009299711106,0.0055015130376,0.499269077092,1.0,0.0,0.00442319922149
1437512295138554096,0.00108440322801,0.0122506162152,0.523883448941,1.0,0.0,0.00411077495664
1437512295158118009,0.000131400430109,0.00944877572183,0.515785416561,1.0,0.0,0.00415188260376
1437512295178123950,0.00186401151441,0.007448647212,0.524502261513,1.0,0.0,0.00459788506851
1437512295198151111,-3.51623166353e-05,0.00956173066224,0.516394336706,1.0,0.0,0.00464386399835
1437512295218091964,0.000783357140608,0.0156579286588,0.526178214985,1.0,0.0,0.00409582164139
1437512295238224029,0.000677640952199,0.0150789863954,0.518044297272,1.0,0.0,0.00413677981123
1437512295258131027,0.00107789407775,0.011414597556,0.527180210721,1.0,0.0,0.00418956344947
1437512295278127908,0.000986905592436,0.0112751335088,0.519030554533,1.0,0.0,0.00423145899549
1437512295298166036,0.000876028592756,0.0111733492373,0.51100506109,1.0,0.0,0.00427377363667
1437512295318120956,0.000606588017399,0.0155704326928,0.528039403135,1.0,0.0,0.00413734372705
1437512295338150978,0.000172113219742,0.00951125033025,0.519876006275,1.0,0.0,0.00417871726677
1437512295358048915,0.00244371016306,0.00799680702039,0.529323588657,1.0,0.0,0.00452160742134
1437512295378052949,0.000462163775956,0.0104722449374,0.52114015485,1.0,0.0,0.004566823598
1437512295398112058,0.00119742307143,0.0124364657146,0.529735910499,1.0,0.0,0.00455853296444
1437512295418178081,0.000329557020814,0.00676781639631,0.521545743501,1.0,0.0,0.0046041184105
1437512295438182115,-0.00343382672727,0.0123710025011,0.529058543605,1.0,0.0,0.00429031392559
1437512295458101987,-0.00247265318467,0.0104043036517,0.52087829228,1.0,0.0,0.00433321716264
1437512295478193044,-0.0017896981044,0.0113456560299,0.529977858645,1.0,0.0,0.0044144205749
1437512295498353004,-0.00148896595347,0.0111823964955,0.521783143371,1.0,0.0,0.00445856479928
1437512295518038034,-0.000971607697647,0.00640723235556,0.513713273072,1.0,0.0,0.00450315047055
1437512295538309097,-0.00218671730909,0.0103536156937,0.531098489535,1.0,0.0,0.00440822727978
1437512295558157920,-0.0038365255401,0.0115793628607,0.5228860309,1.0,0.0,0.00445230957121
1437512295578088998,-0.00453840334958,0.0161462397838,0.531279113102,1.0,0.0,0.00420859642327
1437512295598133087,-0.00451197366347,0.0132418503803,0.52306347068,1.0,0.0,0.00425068242475
1437512295618108987,-0.00387925045507,0.0129813414431,0.514972991657,1.0,0.0,0.00429318938404
1437512295638243913,0.00116987252259,0.0121773041785,0.531797351819,1.0,0.0,0.00427111564204
1437512295658337116,0.000691891554015,0.0120221206873,0.523573154169,1.0,0.0,0.00431382702664
1437512295678343057,0.000801288917137,0.0130581392157,0.532919257528,1.0,0.0,0.00435276748613
1437512295698165893,0.000528041301004,0.0127017201492,0.524677502996,1.0,0.0,0.00439629517496
1437512295718169927,-0.00454495773592,0.0200304283237,0.532916504872,1.0,0.0,0.0039912215434
1437512295738070011,-0.00291466592025,0.0156556425616,0.524674364096,1.0,0.0,0.004031133838
1437512295758131980,-0.00280617361568,0.0149070041618,0.516557796544,1.0,0.0,0.00407144520432
1437512295778170108,-0.00226662199566,0.0148046523696,0.534491844016,1.0,0.0,0.00408870121464
1437512295798134088,-0.0017762133386,0.0158333109284,0.535136804003,1.0,0.0,0.00418298784643
1437512295818012952,-0.00202887748092,0.0153504196962,0.526859918004,1.0,0.0,0.00422481773421
1437512295838119983,-0.00245609436097,0.0146489380291,0.536060955751,1.0,0.0,0.0041468157433
1437512295858118057,-0.00206257197351,0.0142000170061,0.527769536871,1.0,0.0,0.00418828381225
1437512295878073930,-0.00237204612058,0.0118290688797,0.519604440856,1.0,0.0,0.00423016678542
1437512295898132085,-0.00249476539757,0.0147990225611,0.537162901139,1.0,0.0,0.00430188188329
1437512295918154954,0.00210316565644,0.00766546979721,0.528854009819,1.0,0.0,0.00434490060434
1437512295938111066,0.000505074015382,0.0136668143794,0.537696091777,1.0,0.0,0.00404743291438
1437512295958120107,0.000155922258273,0.0136715743327,0.529378625178,1.0,0.0,0.00408790726215
1437512295978066921,0.000599020923983,0.00800221010868,0.538663265407,1.0,0.0,0.00447127269581
1437512295998078107,-0.000293789976058,0.00759999241855,0.530330605644,1.0,0.0,0.00451598549262
1437512296018115997,-0.00043242022839,0.00831571176823,0.52212490558,1.0,0.0,0.00456114532426
1437512296038142919,-0.00130030041837,0.00587748907856,0.514044237131,1.0,0.0,0.00460675684735
1437512296058142900,0.00101869429491,0.00982858098869,0.540730344087,1.0,0.0,0.00444656750187
1437512296078134059,0.000698131682293,0.0101253768793,0.532365292174,1.0,0.0,0.00449103303254
1437512296098077058,0.000796193326823,0.00751121379435,0.524127700073,1.0,0.0,0.00453594326973
1437512296118036985,0.000461085456482,0.00813186250452,0.516015616232,1.0,0.0,0.00458130287006
1437512296138187885,0.00141745991859,0.00369387873216,0.508027135283,1.0,0.0,0.00462711602449
1437512296158072948,0.00118693744298,0.00953428838402,0.540759486258,1.0,0.0,0.0045594968833
1437512296178090095,0.000881441601814,0.0109567900938,0.532392928487,1.0,0.0,0.00460509164259
1437512296198183059,0.000766506348737,0.0142847174051,0.541632282197,1.0,0.0,0.00436219526455
1437512296218131065,0.000642353673902,0.0134152666462,0.533251987636,1.0,0.0,0.00440581701696
1437512296238440990,0.00261257120874,0.0124650191152,0.542443403089,1.0,0.0,0.00465608853847
1437512296258038997,6.25215754553e-05,0.00885858677502,0.534050279582,1.0,0.0,0.00470264954492
1437512296278187990,-0.0025085598696,0.0132154666251,0.542969906592,1.0,0.0,0.00446317484602
1437512296298141002,-0.00215722392968,0.0127246357319,0.534568321651,1.0,0.0,0.00450780661777
1437512296318047046,-0.00183795787161,0.0120280761181,0.52629474228,1.0,0.0,0.00455288449302
1437512296338118076,-0.00158733556091,0.0114723684243,0.518147241217,1.0,0.0,0.00459841312841
1437512296358135938,-0.00116184150102,0.00624217458244,0.510123865819,1.0,0.0,0.00464439718053
1437512296378181934,-0.0032521751622,0.0166918950155,0.543842994654,1.0,0.0,0.00412891386077
1437512296398133039,-0.00273748623586,0.012575293137,0.535427034444,1.0,0.0,0.00417020311579
1437512296418082952,-0.00420168595447,0.0149561581406,0.544984150106,1.0,0.0,0.00422559166327
1437512296438122034,-0.00549678346433,0.0148178888849,0.536550335693,1.0,0.0,0.00426784763113
1437512296458144903,-0.003338483478,0.0163758368435,0.5457066585,1.0,0.0,0.00438827648759
1437512296478162050,-0.000621944673003,0.0115534968583,0.5372613801,1.0,0.0,0.00443215947598
1437512296498064994,0.000214385344589,0.0148049756885,0.546292037535,1.0,0.0,0.00439899088815
1437512296518177032,-2.92622276902e-05,0.0143875536713,0.537837411177,1.0,0.0,0.00444298097864
1437512296538101911,-0.000213413039455,0.0139485875145,0.529511585623,1.0,0.0,0.00448741065338
1437512296558150053,-0.00150776569753,0.0158906253055,0.547990900683,1.0,0.0,0.0045507652685
1437512296578069925,0.000592988020799,0.00575156982813,0.539509704238,1.0,0.0,0.00459627294913
1437512296598177909,0.00351865745033,0.0102065235376,0.548507852036,1.0,0.0,0.0045257541351
1437512296618194103,0.00446956255764,0.00820450540632,0.540018329108,1.0,0.0,0.00457101175562
1437512296638104915,0.000521138747717,0.0149308998502,0.548201995206,1.0,0.0,0.00413284357637
1437512296658086061,-0.00120621767128,0.0129572373247,0.539716699803,1.0,0.0,0.00417417194694
1437512296678122997,0.00205504122132,0.00863028738822,0.550345567721,1.0,0.0,0.00485573150218
1437512296698173999,-0.00167646463306,0.0106177501562,0.550644620937,1.0,0.0,0.00449149589986
1437512296718152999,-0.00146175782938,0.0108897173959,0.54212139641,1.0,0.0,0.00453641079366
1437512296738106966,-0.00488453588914,0.0186090255884,0.550758670443,1.0,0.0,0.00396924186498
1437512296758150100,-0.00333939135307,0.0157936023956,0.542233258939,1.0,0.0,0.00400893436745
1437512296778125047,-0.0045744460338,0.0183134923893,0.551366392815,1.0,0.0,0.00402689864859
1437512296798079013,-0.00690936023893,0.0137839648509,0.542831267262,1.0,0.0,0.00406716763973
1437512296818083047,-0.0057732853631,0.0132427800265,0.534426193893,1.0,0.0,0.00410783942789
1437512296838162899,-0.000848599709499,0.0100261102998,0.551901803339,1.0,0.0,0.00431423028931
1437512296858161926,-0.000697290005519,0.0103774790085,0.54335786863,1.0,0.0,0.0043573724106
1437512296878066062,-0.00518521608028,0.0188220819458,0.552676943552,1.0,0.0,0.00407520169392
1437512296898055076,-0.00216582007197,0.0134510831725,0.544120748317,1.0,0.0,0.00411595357582
1437512296918117046,-0.00346425065363,0.017381307928,0.552691050982,1.0,0.0,0.0040529849939
1437512296938189029,0.00214940134611,0.00787809703324,0.553415106803,1.0,0.0,0.00440965592861
1437512296958149909,0.00142276467232,0.00883483782236,0.544846976286,1.0,0.0,0.00445375265554
1437512296978408098,-6.17416990281e-05,0.0108133135182,0.554034277529,1.0,0.0,0.0041527627036
1437512296998126983,0.000467066599958,0.015677183494,0.554584056681,1.0,0.0,0.00394079880789
1437512297018038034,-0.000280067371204,0.0152624061331,0.545997442019,1.0,0.0,0.00398020679131
1437512297038105964,-0.00185712908715,0.012316753897,0.537541652167,1.0,0.0,0.00402000872418
1437512297058135032,-0.0017326848465,0.0119161970913,0.52921471436,1.0,0.0,0.00406020879745
1437512297078093051,-0.00375654418312,0.0143330555773,0.555222457957,1.0,0.0,0.00396599667147
1437512297098295927,-0.00384444390802,0.0145804567626,0.546625259894,1.0,0.0,0.00400565657765
1437512297118154048,-0.000324896699749,0.0136401029486,0.554964987421,1.0,0.0,0.00392904505134
1437512297138096094,-0.00258312822698,0.0155888680776,0.546371266079,1.0,0.0,0.00396833568811
1437512297158119916,-0.00250455748901,0.0171603982861,0.55532788344,1.0,0.0,0.00417733285576
1437512297178102016,-0.000964408258551,0.0188035825267,0.556502345097,1.0,0.0,0.0035789408721
1437512297198247909,-0.00172196890926,0.0139974251208,0.547884524256,1.0,0.0,0.00361473020166
1437512297218270063,-0.00147801776184,0.0139712046832,0.539398006266,1.0,0.0,0.00365087739192
1437512297238091945,0.000753694119339,0.0158621387556,0.556434333664,1.0,0.0,0.00378837762401
1437512297258114099,0.000478064822528,0.015283428914,0.54781689198,1.0,0.0,0.00382626149803
1437512297278052091,0.00322210728191,0.00894672442228,0.539330753952,1.0,0.0,0.00386452418752
1437512297298206090,0.00264081353671,0.0116767244232,0.557732954997,1.0,0.0,0.00401624245569
1437512297318089008,-0.000195660267491,0.0136926444247,0.557619360197,1.0,0.0,0.00370437093079
1437512297338093996,-0.000206682298085,0.0134956086418,0.548982976896,1.0,0.0,0.00374141475186
1437512297358197927,-0.0017037779493,0.0150918928543,0.55881771937,1.0,0.0,0.00362497358583
1437512297378578901,-0.000989125611932,0.00977985679929,0.550162617952,1.0,0.0,0.00366122322157
1437512297398111104,-0.000638874182368,0.0100174745909,0.559979868639,1.0,0.0,0.0040164636448
1437512297418040990,-0.000737416462289,0.0102745808297,0.551306593913,1.0,0.0,0.00405662832782
1437512297438152074,-0.000702956585474,0.014316571095,0.560395734662,1.0,0.0,0.00375160388649
1437512297458146095,-0.00207381195432,0.0167721179518,0.560545788181,1.0,0.0,0.003623862518
1437512297478404045,-0.00179186669411,0.0163905252499,0.551863216978,1.0,0.0,0.0036601012107
1437512297498145103,-0.00373534757091,0.0113482075176,0.560449515748,1.0,0.0,0.00405167555436
1437512297518035888,-0.00277038315835,0.00707606360666,0.551767989314,1.0,0.0,0.00409219227731
1437512297538111925,-0.00247054309075,0.00764106090937,0.543218744332,1.0,0.0,0.00413311412558
1437512297558382034,-0.000772457588573,0.00477043770952,0.534799761462,1.0,0.0,0.00417444529012
1437512297578233957,0.00019183984914,0.0126287017018,0.561442350405,1.0,0.0,0.00390436290763
1437512297598527908,-0.000221309938934,0.0126292541623,0.552744807029,1.0,0.0,0.0039434065111
1437512297618066072,-0.000263146828365,0.0121909586713,0.544179795635,1.0,0.0,0.00398284057155
1437512297638109922,-0.00200375024506,0.00697503790434,0.53574529708,1.0,0.0,0.00402266904712
1437512297658315896,-0.000502372500705,0.00541957720416,0.527439314491,1.0,0.0,0.00406289566308
1437512297678565979,-0.00145547492684,0.0130440950394,0.56207319299,1.0,0.0,0.00384409585968
1437512297698121070,0.00057081431296,0.0149813760072,0.553364984202,1.0,0.0,0.00388253689744
1437512297718336105,0.00012830267151,0.0144047982263,0.544789466852,1.0,0.0,0.00392136210576
1437512297738121032,0.000876773451455,0.0139965951443,0.563010481304,1.0,0.0,0.00428615091369
1437512297758151054,0.000522287532658,0.0131622529021,0.554287326413,1.0,0.0,0.00432901224121
1437512297778189897,-0.000756391116829,0.0092534279087,0.563773849159,1.0,0.0,0.0042218756862
1437512297798203945,-0.000650032702833,0.00946228590037,0.555038617915,1.0,0.0,0.00426409440115
1437512297818125009,-0.00140247220152,0.0114325761795,0.564292161685,1.0,0.0,0.00431138044223
1437512297838138103,-0.00127063608252,0.0113495387228,0.555548583227,1.0,0.0,0.00435449415818
1437512297858141899,-0.00133187158244,0.0107529053646,0.546938242215,1.0,0.0,0.00439803907648
1437512297878195047,0.00208408413309,0.00662784181186,0.565180596495,1.0,0.0,0.004354827106
1437512297898046970,0.00104301163083,0.00801950548193,0.565511259556,1.0,0.0,0.00432943878695
1437512297918047904,0.000984788175265,0.00860281698406,0.556748217654,1.0,0.0,0.00437273317948
1437512297938158988,-0.000808442126754,0.0135915454295,0.56599475947,1.0,0.0,0.00401476584375
1437512297958077907,-0.000629029988886,0.0134432606581,0.55722389304,1.0,0.0,0.0040549132973
1437512297978069067,0.00309248275589,0.00949624829082,0.566169344461,1.0,0.0,0.00455094827339
1437512297998085021,0.00198409052682,0.012501836559,0.566207574022,1.0,0.0,0.00435881549492
1437512298018172025,0.00239476105489,0.0104540302986,0.557432828146,1.0,0.0,0.00440240371972
1437512298038331031,0.00198100096022,0.0104019446662,0.548791773933,1.0,0.0,0.00444642780349
1437512298058274984,-0.00113157862088,0.0099973395103,0.569215047067,1.0,0.0,0.00474388664588
1437512298078089952,-0.00342669425008,0.00789994981315,0.560393742424,1.0,0.0,0.00479132542387
1437512298098136901,-0.00225027416454,0.00692555296991,0.551706856853,1.0,0.0,0.0048392387107
1437512298118088006,-0.00189000924584,0.00694133709767,0.543152348834,1.0,0.0,0.004887631163
1437512298138241052,-0.000497780475052,0.00888784888957,0.569327946717,1.0,0.0,0.00446508359164
1437512298158313989,-0.00052001406184,0.00923364568589,0.560504065484,1.0,0.0,0.0045097344555
1437512298178222894,-0.0035091967773,0.010365278292,0.551814649683,1.0,0.0,0.00455483188853
1437512298198127985,-0.00236737293599,0.0109314318928,0.570771373051,1.0,0.0,0.00440940819681
1437512298218127012,-0.00189919413679,0.0109395382744,0.561924835652,1.0,0.0,0.00445350212976
1437512298238128900,-0.00320559376996,0.0113948093818,0.5699830652,1.0,0.0,0.00448555313051
1437512298258095979,-0.000224361981236,0.0114486288279,0.561148125303,1.0,0.0,0.00453040888533
1437512298278094053,5.31291538209e-05,0.01666214492,0.570625328535,1.0,0.0,0.00421224394813
