%time,field.x,field.y,field.z
1437512285522905111,0.0,0.0,0.0
1437512285538398027,0.0,0.0,0.0
1437512285558341979,0.0,0.0,0.0
1437512285577934980,0.0,0.0,0.0
1437512285597989082,0.0,0.0,0.0
1437512285618228912,0.0,0.0,0.0
1437512285638485908,0.00188414659351,0.0170338656753,-0.486088603735
1437512285658413887,0.00168655777816,0.015093983151,-0.478305339813
1437512285678045988,0.00166091369465,0.0168089587241,-0.486471742392
1437512285698426008,0.00183098763227,0.0169211775064,-0.485517114401
1437512285718370914,0.00163990294095,0.0149941528216,-0.477725595236
1437512285738024950,0.00185483461246,0.0169858913869,-0.485653579235
1437512285758012056,0.00176833651494,0.0166070442647,-0.486235648394
1437512285778067111,0.00158499495592,0.0147158708423,-0.478415250778
1437512285798088073,0.00142047624104,0.0130400797352,-0.470714241266
1437512285818100929,0.00127287127543,0.0115551399067,-0.463130801916
1437512285838018894,0.00114046165254,0.0102393133566,-0.455663144588
1437512285858386039,0.00169390661176,0.016801033169,-0.486121892929
1437512285878042936,0.0017064322019,0.016590161249,-0.486322253942
1437512285898283958,0.00167997891549,0.0163800567389,-0.478466391563
1437512285918075084,0.00167321553454,0.0162049345672,-0.470730483532
1437512285938482999,0.00187361100689,0.0168238822371,-0.48552724719
1437512285958343029,0.00184749951586,0.0166048128158,-0.477666884661
1437512285978017091,0.0016237226082,0.0163303371519,-0.486184120178
1437512285998049974,0.00160087889526,0.0159405395389,-0.478301674128
1437512286018019914,0.00156537513249,0.0154277393594,-0.470539599657
1437512286038137912,0.00152002670802,0.0148250125349,-0.462896078825
1437512286057979106,0.00154474098235,0.0162985101342,-0.485404521227
1437512286078318119,0.00161151739303,0.0164018068463,-0.485844522715
1437512286098058938,0.00160044454969,0.0161911509931,-0.477938920259
1437512286118531942,0.00147683301475,0.0164607372135,-0.485899686813
1437512286138281106,0.00147820240818,0.0162047278136,-0.477981626987
1437512286158047914,0.00165133213159,0.0164370145649,-0.485927194357
1437512286178085088,0.00167885306291,0.0168480407447,-0.486182004213
1437512286198163032,0.00165244063828,0.016560671851,-0.47824203968
1437512286218035936,0.00162681110669,0.0162670779973,-0.4704233706
1437512286238101005,0.00172304711305,0.0165383815765,-0.48616951704
1437512286258079051,0.00168243446387,0.0161359459162,-0.478212535381
1437512286278270959,0.00164709531236,0.0159266609699,-0.470377117395
1437512286298274040,0.00162213866133,0.0157514624298,-0.462661415339
1437512286318113088,0.00159893010277,0.0155751537532,-0.455063611269
1437512286338051080,0.00142724439502,0.0166273284703,-0.48474881053
1437512286358035087,0.00166807509959,0.0168286468834,-0.485448688269
1437512286378053903,0.00164546864107,0.0165541134775,-0.477469176054
1437512286398118972,0.00156120734755,0.016340970993,-0.485830545425
1437512286418155908,0.00155041890685,0.0161342956126,-0.477833390236
1437512286438106060,0.0015036878176,0.0163253508508,-0.485827922821
1437512286458044052,0.00150651170406,0.016118099913,-0.477819234133
1437512286478107929,0.00157359510195,0.0162559710443,-0.485733240843
1437512286498078107,0.00156136217993,0.0159956049174,-0.477714508772
1437512286518071889,0.00155145011377,0.0163431912661,-0.485784977674
1437512286538216114,0.00153729086742,0.0160377528518,-0.477753847837
1437512286558161973,0.0010461587226,0.0162993948907,-0.485142827034
1437512286578344106,0.000970644352492,0.0164222549647,-0.485520631075
1437512286598076105,0.0010265186429,0.0162050444633,-0.477476358414
1437512286618052959,0.000876022735611,0.0160940978676,-0.484221637249
1437512286638183116,0.000758437381592,0.0159692429006,-0.484292298555
1437512286658101081,0.000824111048132,0.0157806910574,-0.476250320673
1437512286678103923,0.000654080417007,0.0159905403852,-0.484322011471
1437512286698067903,0.000738739094231,0.015792440623,-0.476268023252
1437512286718368053,0.000812556536403,0.0155909908935,-0.468337208033
1437512286738037109,0.000673449831083,0.0158743970096,-0.483800649643
1437512286758049964,0.000752381572966,0.0156677607447,-0.47573786974
1437512286778315067,0.000772726547439,0.015511401929,-0.467798382044
1437512286798163890,0.000782911782153,0.0153852468356,-0.45998030901
1437512286818475008,0.00116905407049,0.017110766843,-0.484862864017
1437512286838320970,0.00112632941455,0.0167699567974,-0.476760417223
1437512286858072042,0.00106122426223,0.0168427452445,-0.485000431538
1437512286878113031,0.00102576974314,0.0165011063218,-0.476884245872
1437512286898489952,0.00108769955114,0.0165833421052,-0.485105216503
1437512286918299913,0.00104449596256,0.0166589748114,-0.485344588757
1437512286938144922,0.0010098166531,0.0163193140179,-0.47720554471
1437512286958014965,0.00105488940608,0.0163079686463,-0.484969437122
1437512286978492975,0.00101269921288,0.0160160847008,-0.476824849844
1437512286998148918,0.000986874336377,0.016461789608,-0.484832406044
1437512287018057107,0.0010898434557,0.0164291895926,-0.485401988029
1437512287038242101,0.00108404166531,0.0162674151361,-0.477233111858
1437512287058027982,0.00066905899439,0.0160617921501,-0.485841333866
1437512287078371047,0.000700371339917,0.0159147325903,-0.477653861046
1437512287098457098,0.000963849073742,0.0163620170206,-0.485616922379
1437512287117994070,0.000964719161857,0.0161551013589,-0.477421492338
1437512287138027906,0.00106374185998,0.0162357725203,-0.485838502645
1437512287158029079,0.00121990358457,0.0159786976874,-0.486368060112
1437512287178082942,0.00118824932724,0.0157882720232,-0.478143215179
1437512287198132038,0.00121160945855,0.0156457107514,-0.486284255981
1437512287218049049,0.001173583325,0.0155086899176,-0.478049188852
1437512287238034963,0.00115006172564,0.0153838787228,-0.469940125942
1437512287258162021,0.00112866121344,0.0152570968494,-0.461955189705
1437512287278378963,0.00106826669071,0.0151246068999,-0.454092442989
1437512287298564910,0.000342267332599,0.016239784658,-0.486051648855
1437512287318327903,0.000401751225581,0.0160240959376,-0.477792084217
1437512287338447093,0.000583542976528,0.0156689602882,-0.486716866493
1437512287358376026,0.000966580992099,0.016692770645,-0.485814630985
1437512287378027915,0.000981250312179,0.0163875669241,-0.477541446686
1437512287398169040,0.000967096595559,0.0168097093701,-0.485747933388
1437512287418373107,0.000981269637123,0.0164578873664,-0.477464258671
1437512287438472032,0.0016924678348,0.0171896833926,-0.48541623354
1437512287458055019,0.00161815446336,0.0167691316456,-0.477126330137
1437512287478060007,0.00171407510061,0.0169314965606,-0.484077125788
1437512287498545885,0.00126299657859,0.0167048815638,-0.484577536583
1437512287518306016,0.00115577678662,0.0164255052805,-0.476283699274
1437512287538136005,0.00112907763105,0.0165192913264,-0.484518945217
1437512287558043003,0.00106165616307,0.01620365493,-0.476214498281
1437512287578041076,0.00083381094737,0.0167067311704,-0.484425514936
1437512287598047018,0.000839309883304,0.0164409037679,-0.47611105442
1437512287618438005,0.000842104142066,0.0162476096302,-0.467923909426
1437512287638537883,0.000353202805854,0.0159246325493,-0.484841942787
1437512287658066987,0.00026693198015,0.0158229209483,-0.485053807497
1437512287678370952,0.000399609474698,0.0156946834177,-0.476706326008
1437512287697987079,0.000304778397549,0.0162365026772,-0.484032303095
1437512287718142986,0.000398100470193,0.0160551387817,-0.47568961978
1437512287738168954,0.000982608064078,0.0170832835138,-0.484008550644
1437512287758074998,0.000986109836958,0.0167877227068,-0.475654751062
1437512287778059005,0.000982451718301,0.0164943542331,-0.467428892851
1437512287798122882,0.00176458596252,0.0177607275546,-0.483644247055
1437512287818067073,0.00165041466244,0.01738104783,-0.475279152393
1437512287838440895,0.00188214879017,0.0177872367203,-0.484894931316
1437512287858321905,0.00170643569436,0.0173534210771,-0.476498305798
1437512287878393888,0.00145234446973,0.0176585633308,-0.484771698713
1437512287898144960,0.00142669386696,0.0177336800843,-0.484855622053
1437512287918292999,0.00129770406056,0.017336755991,-0.476442277431
1437512287938369035,0.00177992903627,0.0176180414855,-0.485434889793
1437512287958115100,0.0016776319826,0.0173187423497,-0.477000713348
1437512287978231906,0.000731493288185,0.0174939371645,-0.483495861292
1437512287998193025,0.000749239115976,0.0171489510685,-0.475081205368
1437512288018393039,0.000454073015135,0.0171841885895,-0.483560949564
1437512288038467884,0.000569314288441,0.0169622953981,-0.475133746862
1437512288058167934,0.000949425215367,0.0180231947452,-0.48330873251
1437512288078133106,0.00137378287036,0.0174821075052,-0.485778778791
1437512288098030090,0.0013642454287,0.0172551032156,-0.477298736572
1437512288118535041,0.00114850024693,0.0169770419598,-0.48560911417
1437512288138583898,0.000886984053068,0.0169838573784,-0.486349254847
1437512288158376932,0.000965378072578,0.0168088376522,-0.477842718363
1437512288178188085,0.000879346043803,0.0169482771307,-0.486040949821
1437512288198101997,0.000853867852129,0.0167658142745,-0.47752776742
1437512288218019962,0.00083318981342,0.0165696125478,-0.469145059586
1437512288238409042,0.000785124429967,0.0163995418698,-0.460890859365
1437512288258167982,0.000754086708184,0.0162265188992,-0.452763199806
1437512288278079032,0.00110963988118,0.0166086889803,-0.486910700798
1437512288298049926,0.00112186092883,0.0164634156972,-0.478355437517
1437512288318195104,0.00106094114017,0.0164041537791,-0.487213999033
1437512288338159084,0.0010564950062,0.0162318516523,-0.47864228487
1437512288358019113,0.000739522685762,0.0165186673403,-0.485382169485
1437512288378092050,0.000578526058234,0.0165762137622,-0.485428452492
1437512288398000001,0.000602302723564,0.0163811594248,-0.4768679142
1437512288418322086,0.000869778043125,0.0164372976869,-0.485194772482
1437512288438065052,0.000962992489804,0.0167271289974,-0.485009282827
1437512288458067893,0.000934125157073,0.0164604820311,-0.476438105106
1437512288478112936,0.0010158054065,0.0167161058635,-0.4849652946
1437512288498078107,0.00103616318665,0.0164046995342,-0.485905736685
1437512288518050909,0.00103234662674,0.0161809716374,-0.477302849293
1437512288538085937,0.00115460902452,0.0165861267596,-0.486334472895
1437512288558051109,0.00113111687824,0.0163187459111,-0.477713137865
1437512288578032970,0.000981755554676,0.0161512829363,-0.486123263836
1437512288598057985,0.000961002777331,0.0160242058337,-0.485556125641
1437512288618104934,0.00091352511663,0.0158360525966,-0.476929873228
1437512288638150930,0.000904525979422,0.0159396771342,-0.485393762589
1437512288658088922,0.000948444532696,0.0160274095833,-0.485510259867
1437512288678199052,0.000935499963816,0.015846485272,-0.476867347956
1437512288698765993,0.00106310471892,0.0162328202277,-0.485412538052
1437512288718322992,0.00104751205072,0.0160229243338,-0.476759642363
1437512288738239049,0.00103330053389,0.0158145707101,-0.468239486217
1437512288758307933,0.00103232776746,0.0156703516841,-0.459850043058
1437512288778047084,0.00102921400685,0.0155158564448,-0.451589286327
1437512288798052072,0.000537680229172,0.016151741147,-0.484914034605
1437512288818030118,0.000694854184985,0.0162680428475,-0.486384391785
1437512288838578939,0.000709562678821,0.0159969888628,-0.47768202424
1437512288858047008,0.000389473396353,0.0159933697432,-0.48566108942
1437512288878034114,0.000161897565704,0.0160246361047,-0.486412703991
1437512288898099899,0.000239286280703,0.0157817751169,-0.477692484856
1437512288918051958,-2.10589787457e-05,0.0156050883234,-0.487483531237
1437512288938158035,8.7867025286e-05,0.0154273305088,-0.478734612465
1437512288958031892,0.000266313611064,0.0160331837833,-0.486598432064
1437512288978044986,0.000341710809153,0.0157717410475,-0.477852076292
1437512288998120069,0.000408062624047,0.0155247393996,-0.469239920378
1437512289018301010,0.00038996594958,0.0158447176218,-0.48534154892
1437512289038379907,0.000416770140873,0.0156649854034,-0.476598113775
1437512289058053970,-1.59791088663e-05,0.0153576778248,-0.486894100904
1437512289078218936,2.63365473074e-05,0.0152058303356,-0.478114277124
1437512289098001003,0.000687612453476,0.0158176105469,-0.486327767372
1437512289118128061,0.000650232366752,0.0156207885593,-0.48552390933
1437512289138432979,0.000576234946493,0.0154013112187,-0.476748585701
1437512289158138036,0.000697671785019,0.0155176417902,-0.485668838024
1437512289178071975,0.000646489090286,0.0153525061905,-0.476879656315
1437512289198055982,0.00071977393236,0.0154458489269,-0.485302776098
1437512289218097925,0.000680660712533,0.0152379292995,-0.476507902145
1437512289238120079,0.00064362649573,0.0150856804103,-0.467848032713
1437512289258028984,0.000935631804168,0.0156722180545,-0.484688729048
1437512289278018951,0.000829939148389,0.015422471799,-0.475886523724
1437512289298120975,0.000995935406536,0.0158432945609,-0.484588354826
1437512289318077087,0.000953411334194,0.0156193803996,-0.475776225328
1437512289338031053,0.00115251250099,0.0160344280303,-0.485104650259
1437512289358022928,0.00131027167663,0.0160869751126,-0.485243618488
1437512289378113031,0.00123343989253,0.0158056188375,-0.476403653622
1437512289398173093,0.00116009579506,0.0155397867784,-0.467699438334
1437512289418112993,0.00125586695503,0.0159722082317,-0.484813570976
1437512289438118934,0.00118372030556,0.0156759303063,-0.475963354111
1437512289458427906,0.00114148599096,0.0158983841538,-0.484585285187
1437512289478079080,0.00110737606883,0.0156535692513,-0.475727200508
1437512289498100996,0.00068810681114,0.0153788337484,-0.484751939774
1437512289518208980,0.000567030569073,0.0152843799442,-0.486701846123
1437512289538106918,0.000599665101618,0.0151035794988,-0.477792531252
1437512289558065891,0.000466046534711,0.0153330238536,-0.487134367228
1437512289578061103,0.00054543238366,0.0151929296553,-0.478206545115
1437512289598066091,0.000777947308961,0.0151189817116,-0.487173885107
1437512289618048906,0.0011672853725,0.0156352091581,-0.487394273281
1437512289638051033,0.00116166973021,0.0154501013458,-0.478444844484
1437512289658082008,0.000833191676065,0.0153474500403,-0.487334549427
1437512289678065061,0.000854043813888,0.0151874851435,-0.478374511003
1437512289698076009,0.00106267177034,0.0156232919544,-0.487360864878
1437512289718033075,0.00101282994729,0.0153806684539,-0.478388816118
1437512289738080024,0.000956376374234,0.0151563230902,-0.469554573298
1437512289758424043,0.00110018649139,0.016329811886,-0.487283051014
1437512289778067111,0.00102447671816,0.0160022750497,-0.47829502821
1437512289798135995,0.00133056659251,0.0161486268044,-0.488108158112
1437512289818054914,0.0012598464964,0.0158203076571,-0.479095309973
1437512289838121891,0.000859503867105,0.0157063417137,-0.487947940826
1437512289858041048,0.00144495954737,0.0162516273558,-0.488014042377
1437512289878062963,0.00136657850817,0.0159344747663,-0.478985249996
1437512289898370027,0.00130847492255,0.0164524968714,-0.487004518509
1437512289918060064,0.00126853119582,0.0161396600306,-0.477980285883
1437512289938184976,0.00122804939747,0.0158382281661,-0.469094693661
1437512289958400964,0.00119616987649,0.0162564888597,-0.487492948771
1437512289978352069,0.00117191579193,0.0160364899784,-0.478443682194
1437512289998061895,0.00145163852721,0.016346713528,-0.486968696117
1437512290018364906,0.00142159522511,0.0160983726382,-0.477916240692
1437512290038162946,0.00113467033952,0.0162813495845,-0.486397385597
1437512290058157920,0.00109401938971,0.0159963406622,-0.477342486382
1437512290078218936,0.000979366712272,0.0162210986018,-0.486414730549
1437512290098207950,0.00110526697244,0.0158829092979,-0.487058728933
1437512290118078947,0.00111176364589,0.0157174672931,-0.477975845337
1437512290138027906,0.00129202066455,0.0158443078399,-0.48677071929
1437512290158000946,0.00118755234871,0.0157354585826,-0.4871121943
1437512290178071975,0.00117351487279,0.015567435883,-0.47801104188
1437512290198060035,0.00115868158173,0.0153965763748,-0.469049781561
1437512290218077898,0.00117299181875,0.0152759104967,-0.460226267576
1437512290238074064,0.00116491585504,0.0156602673233,-0.488125830889
1437512290258047103,0.0011471855687,0.0155033366755,-0.478985726833
1437512290278019905,0.00102490908466,0.0162831172347,-0.486831009388
1437512290298007011,0.00100822350942,0.0160491410643,-0.477700024843
1437512290318109035,0.00100609706715,0.0158078819513,-0.468709409237
1437512290337994098,0.00100475887302,0.0155775733292,-0.459857016802
1437512290358139991,0.0012477200944,0.0162697192281,-0.486108720303
1437512290378022909,0.00122693763115,0.0159887559712,-0.476966589689
1437512290398044109,0.00119331933092,0.0163125135005,-0.48587089777
1437512290418020009,0.00117619114462,0.015992751345,-0.476721018553
1437512290438055992,0.00112750183325,0.0165713168681,-0.48624137044
1437512290458110094,0.00111840164755,0.0162483360618,-0.477073997259
1437512290478092908,0.00124572357163,0.0167898256332,-0.486391365528
1437512290498090028,0.00161335885059,0.0182843189687,-0.487161129713
1437512290518033981,0.00153369735926,0.0178054291755,-0.477961629629
1437512290537992954,0.00119945232291,0.018216278404,-0.485817611217
1437512290558046102,0.00116694788449,0.0176976565272,-0.476628035307
1437512290578125000,0.00141485850327,0.0182088539004,-0.487091988325
1437512290598028898,0.0013797521824,0.0177322160453,-0.477870464325
1437512290618072986,0.00134465110023,0.0173422824591,-0.468790739775
1437512290638029098,0.0014144864399,0.0183320716023,-0.486847490072
1437512290657998085,0.00136911380105,0.0178997088224,-0.477612674236
1437512290678021907,0.00132788065821,0.0174843054265,-0.468519896269
1437512290698128938,0.00130334624555,0.0171702783555,-0.4595669806
1437512290718015909,0.00131703249644,0.0170412100852,-0.450751781464
1437512290738029003,0.00146123685408,0.0181606896222,-0.48760214448
1437512290757994890,0.00141647935379,0.0179123580456,-0.478327125311
1437512290778122901,0.000916975608561,0.016726853326,-0.484831213951
1437512290798347949,0.000763085787185,0.0167872533202,-0.484689205885
1437512290818032026,0.00081530661555,0.01664628461,-0.475443422794
1437512290838228940,0.000888579932507,0.0168278440833,-0.485335409641
1437512290858472108,0.000929466274101,0.0167423319072,-0.476067751646
1437512290878032922,0.00103289016988,0.0168393198401,-0.486834913492
1437512290898011922,0.0012015143875,0.0171464644372,-0.487374395132
1437512290918320894,0.00119686010294,0.0169088598341,-0.47805672884
1437512290938127040,0.00127894058824,0.0170117262751,-0.486678898335
1437512290958058118,0.00128030776978,0.0168884601444,-0.477360785007
1437512290978056907,0.0012856827816,0.016942486167,-0.486540496349
1437512290998040914,0.00123304827139,0.0166842117906,-0.477213025093
1437512291018030881,0.00120978767518,0.0169916525483,-0.486532688141
1437512291038067102,0.00115575524978,0.0167197287083,-0.477193772793
1437512291058073997,0.00109428842552,0.0169076472521,-0.486050456762
1437512291078089952,0.00106470123865,0.0166546963155,-0.476707696915
1437512291098072052,0.000989550142549,0.0170077830553,-0.485748946667
1437512291117989063,0.000998824252747,0.0167834870517,-0.476399451494
1437512291138006925,0.0010065601673,0.0165610127151,-0.467193841934
1437512291158233880,0.000822351605166,0.0170075967908,-0.485981553793
1437512291178066968,0.000858773302753,0.016757292673,-0.476611196995
1437512291198041915,0.000891290022992,0.0165409557521,-0.467385023832
1437512291218038082,0.000921182974707,0.0172881875187,-0.486046820879
1437512291238517045,0.000939357094467,0.0170163791627,-0.476658254862
1437512291258069038,0.00101560750045,0.0174041297287,-0.486187279224
1437512291278069019,0.00101159175392,0.0171108841896,-0.476784914732
1437512291298438072,0.000989265739918,0.0169774424285,-0.486649125814
1437512291318361997,0.000878761638887,0.0166678819805,-0.486555457115
1437512291338083982,0.000880434468854,0.0164461042732,-0.477129787207
1437512291358052015,0.00104696338531,0.0169494133443,-0.486247450113
1437512291378462076,0.00101182807703,0.0167182665318,-0.476815164089
1437512291398019075,0.00113045808394,0.0168060008436,-0.486905574799
1437512291418694019,0.00111880083568,0.0171443950385,-0.486330211163
1437512291438061952,0.00108523364179,0.0169190522283,-0.476879179478
1437512291458023071,0.00105732260272,0.0166921708733,-0.467573642731
1437512291478043079,0.00115859671496,0.0171534698457,-0.486167609692
1437512291498389005,0.00112969416659,0.0169093254954,-0.476702034473
1437512291518253087,0.00124795571901,0.0171486213803,-0.485516518354
1437512291538053989,0.0011959351832,0.0168609227985,-0.476049810648
1437512291558002948,0.00116063433234,0.0170858800411,-0.485752850771
1437512291578007936,0.00113513914403,0.0168332718313,-0.476270824671
1437512291598419904,0.00132534373552,0.0174536965787,-0.485625356436
1437512291618062019,0.00128981366288,0.0171448942274,-0.476133823395
1437512291638048887,0.00125660712365,0.0169051103294,-0.466788440943
1437512291658049106,0.00125011603814,0.0173840075731,-0.485885024071
1437512291678128004,0.00121584173758,0.0170717518777,-0.476372182369
1437512291698134899,0.00119494658429,0.0168411079794,-0.467005819082
1437512291718128919,0.000524584378581,0.016991822049,-0.486053645611
1437512291738199949,0.00059149338631,0.0167690627277,-0.476520955563
1437512291758090019,0.000830032979138,0.016937462613,-0.486706316471
1437512291778040885,0.000853395380545,0.0167150031775,-0.477151632309
1437512291798084020,0.000720877724234,0.0167471151799,-0.486436396837
1437512291817969083,0.00077269168105,0.0165828708559,-0.476874470711
1437512291838119029,0.00112891150638,0.016599509865,-0.486307412386
1437512291858112096,0.00112773058936,0.0163977127522,-0.476735979319
1437512291878030061,0.00102732528467,0.0167677178979,-0.486597806215
1437512291898041963,0.00103360798676,0.0165633410215,-0.477010160685
1437512291918062925,0.00103708298411,0.0163592249155,-0.467570185661
1437512291938070058,0.00097278796602,0.0161940455437,-0.458275645971
1437512291958163976,0.000628903275356,0.0163681712002,-0.486584305763
1437512291978013992,0.00064180692425,0.0161958485842,-0.476974219084
1437512291998058080,0.000655599869788,0.0160209164023,-0.46751216054
1437512292018138885,0.00106028153095,0.0166732519865,-0.485525667667
1437512292038346052,0.00101885641925,0.0164311900735,-0.475915342569
1437512292058131933,0.000929765228648,0.0164093244821,-0.485985666513
1437512292078058958,0.000938706041779,0.0161783788353,-0.476356446743
1437512292098397970,0.000853287696373,0.0162445809692,-0.485616654158
1437512292118134021,0.000861237756908,0.0160489846021,-0.475981801748
1437512292138425111,0.00101604242809,0.0162627790123,-0.486877650023
1437512292158081054,0.000999695970677,0.0160284116864,-0.47721105814
1437512292178092956,0.000950411485974,0.0158384777606,-0.467693418264
1437512292198123931,0.000907993991859,0.015652898699,-0.458322435617
1437512292218055963,0.000958765216637,0.0165860168636,-0.486576646566
1437512292238308906,0.000957522424869,0.0163625758141,-0.476892203093
1437512292258094072,0.00075441878289,0.0164340492338,-0.486460894346
1437512292278126955,0.000763544871006,0.0162014458328,-0.476766735315
1437512292298093080,0.000781916314736,0.0166397988796,-0.486816972494
1437512292318056106,0.000780568632763,0.0163673646748,-0.477105557919
1437512292338119029,0.000463693519123,0.0158693697304,-0.485248327255
1437512292358124971,0.000514245883096,0.0156860649586,-0.475550442934
1437512292378148078,0.000557426130399,0.0155002940446,-0.466002047062
1437512292398086071,0.000519979395904,0.0161530561745,-0.484429985285
1437512292418086051,0.00055413832888,0.015876609832,-0.474728107452
1437512292438486099,0.000216906075366,0.0157366525382,-0.484981954098
1437512292458100080,0.000289486983093,0.0155782373622,-0.475259721279
1437512292478089094,0.000434960064013,0.0155134648085,-0.486797571182
1437512292498084068,0.000463235308416,0.0153648098931,-0.477034747601
1437512292518006086,0.00027595408028,0.0156805254519,-0.486247003078
1437512292538314104,0.000324065389577,0.0155292218551,-0.476481407881
1437512292558064937,0.000535656115972,0.0159368030727,-0.486694872379
1437512292578097105,0.000528412754647,0.0156887192279,-0.476910561323
1437512292598061084,0.000542908906937,0.0157340783626,-0.485843658447
1437512292618134021,0.000534769555088,0.0155558045954,-0.476061433554
1437512292638022899,0.000531045719981,0.0153701677918,-0.466430008411
1437512292658375024,0.000493954343256,0.0151920244098,-0.456947088242
1437512292678179025,0.000468304991955,0.0150182349607,-0.447610408068
1437512292698122024,0.000685435021296,0.0155526734889,-0.48613858223
1437512292718101024,0.000655969080981,0.0153164770454,-0.476323634386
1437512292738063097,0.00115319609176,0.0170646551996,-0.486666530371
1437512292758042097,0.00105748488568,0.0166730638593,-0.476831585169
1437512292778101921,0.000965801940765,0.0169906578958,-0.486339449883
1437512292798078060,0.000911739596631,0.0166231058538,-0.476498156786
1437512292818080902,0.00106675212737,0.0168035458773,-0.487013489008
1437512292838464021,0.0010018160101,0.0164441410452,-0.47714984417
1437512292858033895,0.00131087051705,0.0168760605156,-0.487534731627
1437512292878125905,0.00121433706954,0.0164722744375,-0.477651178837
1437512292898314952,0.00104438420385,0.0166651271284,-0.488053053617
1437512292918178081,0.000996966962703,0.0163210388273,-0.478149622679
1437512292938049077,0.000951868365519,0.0159925334156,-0.46839889884
1437512292958015918,0.00117185700219,0.0171871036291,-0.487799346447
1437512292978039026,0.00114646973088,0.0168953239918,-0.477882772684
1437512292998120069,0.000659678713419,0.0163828656077,-0.488107144833
1437512293018038988,0.000677582691424,0.0161773879081,-0.478174060583
1437512293038125038,0.000708555686288,0.0160132497549,-0.468394160271
1437512293058067083,0.000729555613361,0.0167148001492,-0.488015621901
1437512293078063011,0.000779433641583,0.0164964962751,-0.478066772223
1437512293098413944,0.000920786173083,0.0167020484805,-0.4863512218
1437512293118052959,0.000922372913919,0.0164645425975,-0.476417422295
1437512293138286113,0.000454241904663,0.0166453476995,-0.485431492329
1437512293158114910,0.000500308640767,0.016346655786,-0.475500881672
1437512293178086042,0.000850711599924,0.0168358162045,-0.485774219036
1437512293198168992,0.000870416639373,0.0166059173644,-0.475826591253
1437512293218040943,0.000987986684777,0.0169483087957,-0.485823780298
1437512293237996101,0.000945807958487,0.0166343357414,-0.475863814354
1437512293257981061,0.0010240933625,0.017033431679,-0.486087590456
1437512293278131961,0.00098256196361,0.0167634747922,-0.476111859083
1437512293298103094,0.00122848991305,0.0169420875609,-0.486154824495
1437512293318073987,0.00118277827278,0.0166813191026,-0.476166456938
1437512293337990045,0.00103644293267,0.0170482583344,-0.486119896173
1437512293358069896,0.000966091698501,0.0167699214071,-0.476120561361
1437512293378041028,0.000908350863028,0.0164933372289,-0.46627548337
1437512293398101091,0.000854860816617,0.0167770050466,-0.485764622688
1437512293418095111,0.000846690323669,0.0165251214057,-0.475753813982
1437512293438055038,0.000827053037938,0.0168737936765,-0.486015439034
1437512293458018064,0.000829609343782,0.0166136212647,-0.475989073515
1437512293478116035,0.00137217203155,0.0172844510525,-0.485427767038
1437512293498358964,0.00131643807981,0.0169908627868,-0.475399285555
1437512293518091917,0.00129122438375,0.0167483463883,-0.465525537729
1437512293538096904,0.00120255618822,0.0171944033355,-0.485344707966
1437512293558120965,0.00117125851102,0.0169393569231,-0.475300431252
1437512293578069925,0.00126950582489,0.0169650353491,-0.486090987921
1437512293598167896,0.00121810601559,0.0166808366776,-0.476023226976
1437512293618043899,0.00116668595001,0.0164573974907,-0.466110855341
1437512293638119935,0.00112030806486,0.0162341967225,-0.456351488829
1437512293658204078,0.00107672659215,0.0160712767392,-0.446742802858
1437512293678395032,0.00103843386751,0.0159008670598,-0.437282472849
1437512293698097944,0.000643729581498,0.0160584989935,-0.486210227013
1437512293718009948,0.000703241268639,0.0159263666719,-0.47610732913
1437512293738086938,0.00108867557719,0.0169538781047,-0.486771911383
1437512293758126020,0.00108668894973,0.0167406182736,-0.4766484797
1437512293778017044,0.00108180963434,0.016526190564,-0.466681301594
1437512293798049926,0.00108263501897,0.0167778916657,-0.487227916718
1437512293818037986,0.00108319951687,0.016533318907,-0.477080017328
1437512293838088035,0.00132945063524,0.0171358920634,-0.486900031567
1437512293858031988,0.00129270926118,0.0168061647564,-0.476745814085
1437512293878081083,0.00102166796569,0.0165310390294,-0.486470729113
1437512293898049116,0.00101172924042,0.0162367150187,-0.476311832666
1437512293918041944,0.00124717631843,0.0173063501716,-0.486707210541
1437512293938155889,0.00117845879868,0.0169266685843,-0.476532965899
1437512293958188056,0.00129853817634,0.0169824045151,-0.487421363592
1437512293978027105,0.00126142229419,0.0167208202183,-0.477224141359
1437512293998059988,0.000972388545051,0.0168462339789,-0.486527442932
1437512294018074035,0.000971952220425,0.0166035853326,-0.476332962513
1437512294038063049,0.00112701626495,0.0172969419509,-0.486456513405
1437512294058060884,0.00113367126323,0.0170386508107,-0.476251602173
1437512294078152894,0.00113592355046,0.0167768709362,-0.466204255819
1437512294098094940,0.000813698396087,0.0168774202466,-0.486599266529
1437512294118180036,0.000824781949632,0.0165770035237,-0.476374924183
1437512294138072967,0.000856889295392,0.0164175927639,-0.466308444738
1437512294158463001,0.00129652605392,0.0171263404191,-0.48563683033
1437512294178160905,0.00128073233645,0.0168723389506,-0.475410729647
1437512294198134899,0.00103557913098,0.016837246716,-0.485374689102
1437512294218063116,0.00101680471562,0.0166026130319,-0.475141257048
1437512294238056898,0.000790890306234,0.016120152548,-0.485614478588
1437512294258069038,0.000814483268186,0.0160119347274,-0.475365698338
1437512294278033018,0.000836183899082,0.0158902443945,-0.465275198221
1437512294298058032,0.000920754042454,0.016048302874,-0.485053271055
1437512294318023920,0.000641828868538,0.0160525795072,-0.484889924526
1437512294338038921,0.000652833201457,0.0158802028745,-0.474629789591
1437512294358069896,0.000716937764082,0.0164011903107,-0.48499712348
1437512294378062963,0.000766333658248,0.0162436459213,-0.474723756313
1437512294398092031,0.000808589276858,0.0160787291825,-0.464609086514
1437512294418091058,0.00082137004938,0.0159293785691,-0.45465067029
1437512294438030004,0.000830876990221,0.0157736223191,-0.444846123457
1437512294458048105,0.00128523306921,0.0168657582253,-0.484807789326
1437512294478121995,0.00122301175725,0.0165448430926,-0.474509596825
1437512294498522996,0.00116983742919,0.016248261556,-0.464370459318
1437512294518073081,0.00113074237015,0.0160011649132,-0.45438799262
1437512294538125991,0.00106795958709,0.0157828703523,-0.444559782743
1437512294558054924,0.00110473867971,0.0179182738066,-0.485476285219
1437512294578049898,0.0010536191985,0.01751614362,-0.475139498711
1437512294598011016,0.00101303297561,0.0171440169215,-0.464962393045
1437512294618391990,0.000981097575277,0.0167977511883,-0.454942554235
1437512294638340950,0.000903383013792,0.0170566029847,-0.484976768494
1437512294658121109,0.000886670837644,0.0166896991432,-0.474625408649
1437512294678112030,0.000915987184271,0.0164734199643,-0.464433997869
1437512294698211908,0.00110247149132,0.0170487966388,-0.485101789236
1437512294718036890,0.00109651847742,0.0167301464826,-0.474731355906
1437512294738225936,0.000941287260503,0.0169871170074,-0.48539301753
1437512294758030891,0.000943943101447,0.0166288912296,-0.475006401539
1437512294778048992,0.000918547739275,0.0169351324439,-0.485560774803
1437512294798163890,0.000920763704926,0.0167561434209,-0.475159943104
1437512294818052053,0.000918815901969,0.0165603850037,-0.464919835329
1437512294838135004,0.000914004631341,0.0163523424417,-0.454837977886
1437512294858051061,0.0012514423579,0.0173549205065,-0.484746903181
1437512294878344058,0.0012000312563,0.0170458909124,-0.474336534739
1437512294898467063,0.00147083611228,0.0183373652399,-0.485151141882
1437512294918096065,0.00141623464879,0.0179522167891,-0.474722802639
1437512294938307046,0.00136717408895,0.0175790674984,-0.464455604553
1437512294958053112,0.00120359146968,0.0178599283099,-0.485511541367
1437512294978040933,0.00116371631157,0.0174871347845,-0.475060343742
1437512294998405933,0.000827942276374,0.0168943051249,-0.484118282795
1437512295018034934,0.000827841518912,0.0166439991444,-0.473677843809
1437512295038098096,0.000827478419524,0.0164026524872,-0.463398784399
1437512295058044910,0.00104018463753,0.0172631666064,-0.484475046396
1437512295078077077,0.0010487427935,0.0170306097716,-0.474011838436
1437512295098090887,0.00105122209061,0.0167937148362,-0.46371036768
1437512295118061065,0.00107915827539,0.0167127363384,-0.453568160534
1437512295138093948,0.00100902933627,0.0175694655627,-0.483973145485
1437512295158091068,0.00103272928391,0.0173242837191,-0.473495483398
1437512295178086996,0.000693784211762,0.0166463721544,-0.4840285182
1437512295198373079,0.000732433982193,0.0164970625192,-0.473538458347
1437512295218028068,0.000588745693676,0.0173470042646,-0.485404253006
1437512295238434076,0.000606973888353,0.0170337278396,-0.474880695343
1437512295258141994,0.000723338453099,0.0171456895769,-0.485936135054
1437512295278084039,0.000746808480471,0.0169172249734,-0.475392520428
1437512295298151016,0.000768435420468,0.0166915655136,-0.465011894703
1437512295318079948,0.000840211112518,0.017391949892,-0.485940366983
1437512295338114023,0.000854918151163,0.0170804522932,-0.47537958622
1437512295358015060,0.000477181805763,0.016599688679,-0.486823946238
1437512295378045082,0.000527501280885,0.0164393167943,-0.476237475872
1437512295398350954,0.000432411732618,0.0166529435664,-0.486617207527
1437512295418135881,0.000458626571344,0.0164040066302,-0.476022481918
1437512295438131093,0.00113485893235,0.0171122178435,-0.485049694777
1437512295458138942,0.0010683061555,0.0168653950095,-0.474468529224
1437512295478146076,0.000969077227637,0.0168301369995,-0.485478878021
1437512295498109102,0.000935288204346,0.0166035480797,-0.474879324436
1437512295518076896,0.000907484733034,0.0163801722229,-0.464443653822
1437512295538132905,0.00113356276415,0.0167992766947,-0.485810816288
1437512295558104991,0.00109165511094,0.0165925975889,-0.475188851357
1437512295578044891,0.00125893147197,0.0172531269491,-0.485316216946
1437512295598107099,0.00117088283878,0.0169309768826,-0.474690645933
1437512295618098974,0.00108287425246,0.0166669078171,-0.464229375124
1437512295638194084,0.000790249498095,0.0171470865607,-0.484896153212
1437512295658170938,0.00081572617637,0.0169033501297,-0.474260210991
1437512295678303003,0.000709490734152,0.0170541796833,-0.485578656197
1437512295698195934,0.000727789418306,0.0167928878218,-0.474920272827
1437512295718136072,0.00159340025857,0.0178826823831,-0.484855383635
1437512295738053083,0.0015056981938,0.0174828115851,-0.47419705987
1437512295758342027,0.00144990335684,0.0171701740474,-0.46370357275
1437512295778143882,0.00150197884068,0.017731629312,-0.48575681448
1437512295798089981,0.00133870658465,0.0176295079291,-0.486198365688
1437512295817984104,0.00130583310965,0.017313150689,-0.475495636463
1437512295838042020,0.00112409505527,0.0176112931222,-0.486631959677
1437512295858082056,0.0010774040129,0.0173187311739,-0.475910753012
1437512295878032922,0.00103850872256,0.0170350819826,-0.465355366468
1437512295898036003,0.00107608991675,0.0173269230872,-0.486938238144
1437512295918098926,0.00102874310687,0.0170313827693,-0.47619497776
1437512295938133955,0.0012321784161,0.0177334863693,-0.486882418394
1437512295958093881,0.00124449026771,0.017460078001,-0.476128488779
1437512295978033065,0.00121243391186,0.0169579572976,-0.487368762493
1437512295997987031,0.00122584612109,0.0167978126556,-0.476595491171
1437512296018085956,0.00122133083642,0.0166458711028,-0.465988874435
1437512296038060903,0.00121417117771,0.0164796411991,-0.455546379089
1437512296058078050,0.000766372948419,0.0169161818922,-0.488537609577
1437512296078052997,0.000788493314758,0.016719436273,-0.477723002434
1437512296098032951,0.000804255483672,0.0165168121457,-0.467075705528
1437512296118011951,0.000821514055133,0.0163664519787,-0.456593155861
1437512296138112068,0.000832181074657,0.016203738749,-0.446272850037
1437512296158031940,0.00088342349045,0.0169885400683,-0.486823171377
1437512296178009986,0.000908899644855,0.0167976450175,-0.476007968187
1437512296198075056,0.000940828816965,0.0172410141677,-0.4871917665
1437512296218358039,0.000958649208769,0.0169551968575,-0.476359128952
1437512296238162040,0.000606716610491,0.0166426710784,-0.487482786179
1437512296257986068,0.000661288271658,0.0163928940892,-0.476633906364
1437512296278137922,0.00113175902516,0.0169846750796,-0.48741787672
1437512296298047065,0.00108394760173,0.0167208239436,-0.476558476686
1437512296318109035,0.00104307511356,0.0164667256176,-0.465867102146
1437512296338378906,0.00100846332498,0.0162265021354,-0.455341219902
1437512296358102083,0.000978764728643,0.0159973464906,-0.444978266954
1437512296378115892,0.00136783742346,0.0176631789654,-0.486762106419
1437512296398108005,0.00130554917268,0.0173298884183,-0.475885242224
1437512296418051958,0.00157805823255,0.0174968671054,-0.487466037273
1437512296438086032,0.0014965555165,0.0171984639019,-0.4765663445
1437512296458101987,0.00116577628069,0.0172526855022,-0.487646013498
1437512296478128910,0.00110188417602,0.0169257670641,-0.476731866598
1437512296498025894,0.000913219759241,0.0172647535801,-0.487654447556
1437512296518136024,0.000920111895539,0.0169686283916,-0.476728618145
1437512296538079023,0.000922057835851,0.0166808944196,-0.465971857309
1437512296558110952,0.00112308585085,0.0168205890805,-0.48870447278
1437512296578054904,0.00109582440928,0.0165030639619,-0.477744668722
1437512296598110914,0.000527910247911,0.0169922746718,-0.488625884056
1437512296618139982,0.000600127736107,0.0167875159532,-0.477655738592
1437512296638084888,0.00122134014964,0.0177058279514,-0.487519681454
1437512296658018112,0.00123422790784,0.0174071341753,-0.476555645466
1437512296678077936,0.000606031506322,0.0163612496108,-0.489474624395
1437512296698143005,0.00109518656973,0.0170072838664,-0.489481329918
1437512296718117952,0.00106356444303,0.01679523848,-0.478468447924
1437512296738116979,0.00166575878393,0.0178971048445,-0.48889836669
1437512296758054018,0.00157102115918,0.0175257101655,-0.477883189917
1437512296778544902,0.00176378386095,0.0176892653108,-0.488932907581
1437512296798402070,0.00167524756398,0.017323743552,-0.477905571461
1437512296818460941,0.00153928494547,0.0170491859317,-0.467048943043
1437512296838455915,0.00122022815049,0.0172903947532,-0.488527059555
1437512296858150959,0.00120498763863,0.0170900262892,-0.477489024401
1437512296878331899,0.00144129362889,0.0176540929824,-0.488771289587
1437512296898309946,0.00134065840393,0.0172785092145,-0.477717757225
1437512296918086051,0.00154071452562,0.0177820175886,-0.488064587116
1437512296938164949,0.00108410394751,0.0170813370496,-0.488603204489
1437512296958058118,0.00112848088611,0.0169234015048,-0.477534890175
1437512296978106021,0.00155801069923,0.0174139719456,-0.488652527332
1437512296998152971,0.00138757389504,0.0179466493428,-0.488973021507
1437512297018007993,0.00139938457869,0.0176330413669,-0.477881342173
1437512297038038015,0.00139618769754,0.0173278469592,-0.46696138382
1437512297058358907,0.00136098649818,0.0170818120241,-0.456210553646
1437512297078088045,0.0019233354833,0.0180006176233,-0.488353967667
1437512297098130941,0.00185047998093,0.0177145618945,-0.477249532938
1437512297118110895,0.00140850339085,0.0179912615567,-0.487308710814
1437512297138113021,0.00140414875932,0.0177185181528,-0.476209402084
1437512297158145904,0.00142929155845,0.0178556852043,-0.487039893866
1437512297178083896,0.00153587048408,0.0185742881149,-0.488141864538
1437512297198178052,0.00151926989201,0.018198363483,-0.477011829615
1437512297218210935,0.00148683169391,0.0179186686873,-0.466054141521
1437512297238365888,0.00109249900561,0.0179826971143,-0.486984312534
1437512297258375883,0.00110997678712,0.017665348947,-0.475855618715
1437512297278419017,0.00112185440958,0.0173596162349,-0.464899271727
1437512297298141956,0.0011599274585,0.0175876375288,-0.487536370754
1437512297318061113,0.00126985565294,0.0181840267032,-0.487029105425
1437512297338076114,0.00126796949189,0.0179102104157,-0.47587671876
1437512297358480930,0.00155267294031,0.0183105822653,-0.487804293633
1437512297378256082,0.0015207856195,0.0180089995265,-0.4766279459
1437512297398350000,0.00144477607682,0.0177209284157,-0.488533109426
1437512297418303012,0.00143360963557,0.0175206884742,-0.477333515882
1437512297438201904,0.00108165817801,0.0182859748602,-0.488328695297
1437512297458121061,0.0013374905102,0.0184383969754,-0.488150149584
1437512297478228092,0.00129844539333,0.0181032642722,-0.476939231157
1437512297498373031,0.00167280435562,0.0174186658114,-0.487306624651
1437512297517987966,0.00159994058777,0.0171923153102,-0.476097643375
1437512297538049936,0.00154568254948,0.0170512478799,-0.46506229043
1437512297558048009,0.00149751268327,0.0168988332152,-0.454197913408
1437512297578463077,0.00130036636256,0.0180129297078,-0.487135797739
1437512297598187923,0.00130617374089,0.0177603326738,-0.475906938314
1437512297618086099,0.00130371842533,0.0175077896565,-0.464852035046
1437512297638328075,0.00130035809707,0.0172640196979,-0.453968435526
1437512297658052921,0.00126137281768,0.0171248354018,-0.443253517151
1437512297678181886,0.00139433366712,0.0181684941053,-0.486181229353
1437512297698357105,0.00136722938623,0.0179078429937,-0.474939763546
1437512297718058109,0.00138094741851,0.0176081359386,-0.463872462511
1437512297738343000,0.00120204198174,0.0174127779901,-0.486284017563
1437512297758066892,0.00122197822202,0.0171327050775,-0.475023806095
1437512297778114080,0.00127337244339,0.0174242239445,-0.486517071724
1437512297798105001,0.00125980726443,0.0172392893583,-0.475241601467
1437512297818078041,0.00138966040686,0.0173634253442,-0.486443698406
1437512297838386058,0.0013635836076,0.0171350240707,-0.475157856941
1437512297858418941,0.00134012906346,0.0169082600623,-0.464046895504
1437512297878137111,0.00085747090634,0.0171000547707,-0.486484974623
1437512297897989988,0.00101633951999,0.0171155650169,-0.486533403397
1437512297917999982,0.00103858753573,0.0169549994171,-0.475223183632
1437512297938162088,0.00119625474326,0.0176588483155,-0.486416548491
1437512297958024978,0.00118226686027,0.0173871554434,-0.475096642971
1437512297978053092,0.000574452511501,0.0169504154474,-0.48591402173
1437512297998027086,0.00075700803427,0.0173154883087,-0.485597610474
1437512298018089056,0.000798866851255,0.017065115273,-0.474273473024
1437512298038069963,0.000848581956234,0.0168556254357,-0.463124811649
1437512298058203935,0.00137407437433,0.0165857262909,-0.488287687302
1437512298078030109,0.00135334185325,0.0163860041648,-0.476903378963
1437512298098038911,0.00128631084226,0.0162286628038,-0.465695500374
1437512298118038892,0.00124262226745,0.0160905849189,-0.454661369324
1437512298138159036,0.00113667617552,0.0170494895428,-0.487015604973
1437512298158039093,0.00112830672879,0.0168718285859,-0.475629031658
1437512298178241968,0.00111955427565,0.0166872553527,-0.464418947697
1437512298198093891,0.00107937073335,0.0171068198979,-0.487749040127
1437512298218107938,0.00103395234328,0.0168886166066,-0.476333618164
1437512298238070964,0.00130675500259,0.0167847257107,-0.486041873693
1437512298258073091,0.00124469015282,0.0165574140847,-0.474642217159
1437512298278067111,0.00117782107554,0.0172968711704,-0.486124128103
1437512298297979116,0.0010840347968,0.0178273841739,-0.486068099737
1437512298318059921,0.00109232694376,0.0174179021269,-0.474650651217
1437512298338359117,0.00145323225297,0.0180393066257,-0.486333727837
1437512298358079910,0.00140389055014,0.017688177526,-0.474900513887
1437512298378081083,0.00117361510638,0.0180070046335,-0.486062288284
1437512298398154973,0.00115476874635,0.0176231134683,-0.474621862173
1437512298418056011,0.00136030674912,0.0177833531052,-0.485793739557
1437512298438041925,0.00131135387346,0.01744533889,-0.474346101284
1437512298458039045,0.00145505683031,0.017611162737,-0.486171543598
1437512298478004932,0.00144561065827,0.0175606273115,-0.485885679722
1437512298498063087,0.00140087911859,0.0172888077796,-0.474419206381
1437512298518054962,0.00135116325691,0.0171010587364,-0.463130503893
1437512298538078069,0.00130810798146,0.0168937109411,-0.452016860247
1437512298558032989,0.000730419182219,0.0172140561044,-0.485215753317
1437512298578036069,0.000789173413068,0.0170199964195,-0.473737508059
1437512298598174095,0.000821345369332,0.0180017631501,-0.485541760921
1437512298618112087,0.000845465925522,0.0177117101848,-0.47404679656
1437512298638185977,0.000887004251126,0.0174706056714,-0.462730050087
1437512298658062934,0.000850574346259,0.0174343716353,-0.485555589199
1437512298678049087,0.000901080027688,0.0172075554729,-0.474043309689
1437512298698081970,0.00113677897025,0.0171637609601,-0.486006915569
1437512298718087911,0.00114928663243,0.0169358886778,-0.4744759202
1437512298738476037,0.00115533336066,0.0167152751237,-0.463123708963
1437512298758114099,0.00117390963715,0.0168812610209,-0.485926121473
1437512298778301954,0.00111497147009,0.0166787635535,-0.474379330873
1437512298798096895,0.00119433552027,0.0177069213241,-0.4843339324
1437512298818089008,0.00115227163769,0.0176145154983,-0.484968870878
1437512298838434934,0.00110743043479,0.0173780284822,-0.47342005372
1437512298858515024,0.00117814633995,0.0176208075136,-0.485089689493
1437512298878130912,0.00113113585394,0.0173558983952,-0.47352746129
1437512298898448944,0.00109466328286,0.0179573278874,-0.484691023827
1437512298918090105,0.00108619581442,0.0176266673952,-0.473123669624
1437512298938359975,0.00134541606531,0.0178826600313,-0.484585851431
1437512298958022117,0.00124201213475,0.0180421937257,-0.48496901989
1437512298978092908,0.00122067471966,0.0176737084985,-0.473379909992
1437512298998056888,0.001195707242,0.0173270069063,-0.461970537901
1437512299018143892,0.00101264368277,0.0175860244781,-0.484641820192
1437512299038036108,0.00101443566382,0.0173426792026,-0.473040908575
1437512299058186054,0.000599624007009,0.0171221699566,-0.484660297632
1437512299078097105,0.000650733709335,0.0169318988919,-0.473047584295
1437512299098165988,0.000654220115393,0.0171933416277,-0.48441067338
1437512299118148088,0.000690504268277,0.0170287415385,-0.47279047966
1437512299138124942,0.000721927324776,0.0168498829007,-0.461350530386
1437512299158037900,0.000766674114857,0.0171598214656,-0.484603077173
1437512299178088903,0.000804807932582,0.0170075036585,-0.472962766886
1437512299198014974,0.000773953390308,0.0172268524766,-0.485064983368
1437512299218064069,0.000807288277429,0.0169954299927,-0.473405778408
1437512299238092899,0.00109881628305,0.0176129862666,-0.484539955854
1437512299258014917,0.000999161158688,0.0175196770579,-0.484938025475
1437512299278120994,0.000947556225583,0.017235102132,-0.473263531923
1437512299298072099,0.000513338018209,0.0172304324806,-0.484504789114
1437512299318017005,0.000843144953251,0.0174554940313,-0.484575241804
1437512299338037014,0.000818410131615,0.0171686708927,-0.472889244556
1437512299358023881,0.000747153244447,0.0168556161225,-0.484191209078
1437512299378055095,0.000740527990274,0.0166501440108,-0.472499877214
1437512299398067951,0.000482061615912,0.0171568412334,-0.484971672297
1437512299418056964,0.000506562122609,0.0169234573841,-0.473256379366
1437512299438013076,0.000531572382897,0.0166935324669,-0.4617228508
1437512299458245992,0.000308162969304,0.0166550148278,-0.485115975142
1437512299478178024,0.000374324910808,0.0165077075362,-0.473381310701
1437512299498183012,0.000427894119639,0.01634885557,-0.461828738451
1437512299518433094,0.000431770953583,0.0162081122398,-0.450455456972
1437512299538104057,0.000467822625069,0.0161056108773,-0.439258754253
1437512299558065891,0.00108437496237,0.0176633764058,-0.48428696394
1437512299578099966,0.00132674654014,0.0175407137722,-0.485135853291
1437512299598083019,0.00125235365704,0.0172067452222,-0.473367363214
1437512299618041992,0.00115985283628,0.0169616602361,-0.461781471968
1437512299638400077,0.000213939172681,0.0166613887995,-0.485463619232
1437512299658094882,0.00024481699802,0.0164310894907,-0.473672837019
1437512299677999019,0.000114501905045,0.0167692154646,-0.485179722309
1437512299698954105,0.000141249693115,0.0165080856532,-0.473381966352
1437512299718053102,-6.85801496729e-05,0.0164630115032,-0.484599471092
1437512299738075017,-0.000255863793427,0.0170635506511,-0.484070658684
1437512299758033990,-0.000176971589099,0.0167282111943,-0.472273349762
1437512299778032064,-5.87143440498e-05,0.0166115276515,-0.48471313715
1437512299798078060,8.19472479634e-05,0.0164705943316,-0.47289404273
1437512299818041086,0.00019929643895,0.0163125488907,-0.461258381605
1437512299838118076,0.000294079130981,0.0161482226104,-0.449803352356
1437512299858053922,0.000971793313511,0.0159268304706,-0.486284404993
1437512299878043889,0.00088722986402,0.0157551579177,-0.474417746067
1437512299898004055,0.00119037053082,0.0162207875401,-0.486312866211
1437512299917994976,0.00107071571983,0.0160236097872,-0.474434226751
1437512299938585042,0.0011818476487,0.0159529466182,-0.486457109451
1437512299958076000,0.00102267658804,0.0158422961831,-0.474564611912
1437512299978432893,0.00107326882426,0.016073320061,-0.487123161554
1437512299998171091,0.000946759129874,0.0159034021199,-0.475208491087
1437512300018100023,0.000399005744839,0.0155024155974,-0.485412120819
1437512300038575887,0.000374890310923,0.0153666734695,-0.473513275385
1437512300058056116,0.000605693610851,0.0161572489887,-0.484546929598
1437512300078191041,0.000636251526885,0.0159077439457,-0.472650438547
1437512300098098039,0.00119984336197,0.0167114883661,-0.486899912357
1437512300118330955,0.000784879317507,0.0170477051288,-0.485382527113
1437512300138178110,0.000805466494057,0.0167064871639,-0.47345533967
1437512300158016920,0.000834540289361,0.0163970235735,-0.461713284254
1437512300178040981,0.00044010693091,0.0163259189576,-0.485090851784
1437512300198048114,0.000412226741901,0.0162102915347,-0.485245406628
1437512300218044042,0.000462390773464,0.0159522108734,-0.473297536373
1437512300238399982,0.000681165314745,0.0161786489189,-0.485345691442
1437512300258054018,0.000644017301966,0.0158713590354,-0.473384708166
1437512300278527975,0.000649523281027,0.0160414017737,-0.485506027937
1437512300298053979,0.000858453684486,0.0160893406719,-0.48527443409
1437512300318116903,0.000882172374986,0.0159260947257,-0.473297268152
1437512300338056087,0.000748684455175,0.0163200367242,-0.485858172178
1437512300358056068,0.000745697878301,0.0161302555352,-0.473860144615
1437512300378134965,0.000830228906125,0.0160335395485,-0.484099686146
1437512300398037910,0.000728327489924,0.0159956775606,-0.484279721975
1437512300418034076,0.000688533182256,0.0157936252654,-0.472289651632
1437512300438466072,0.000720185926184,0.0157764200121,-0.484270572662
1437512300458338022,0.000708040606696,0.0155959250405,-0.472269177437
1437512300478074073,0.000693668494932,0.0154053010046,-0.460454136133
1437512300498119115,0.00068109104177,0.0152533883229,-0.448822617531
1437512300518117904,0.00103752384894,0.0161751192063,-0.483888417482
1437512300538048028,0.000924694584683,0.0160549543798,-0.485676407814
1437512300558124065,0.000896093028132,0.0158570017666,-0.473624289036
1437512300578037023,0.00101880426519,0.0159061830491,-0.485284686089
1437512300598062992,0.00080169714056,0.0159656982869,-0.485121756792
1437512300618091106,0.000785367097706,0.0157453753054,-0.473061203957
1437512300638044118,0.00056058348855,0.0156963262707,-0.485662907362
1437512300658016920,0.000570898642763,0.0154845137149,-0.473582178354
1437512300678461074,0.000720952753909,0.0153764467686,-0.485808968544
1437512300698132991,0.000710429914761,0.015164213255,-0.473714381456
1437512300718178033,0.000699751544744,0.0149609828368,-0.461807638407
1437512300738683938,0.000163189077284,0.0151696614921,-0.485730916262
1437512300758074045,0.000238392865867,0.0150450225919,-0.473620533943
1437512300778397083,2.5792978704e-06,0.014894255437,-0.485788613558
1437512300798057079,2.75088023045e-05,0.0144613310695,-0.486058324575
1437512300818105936,0.000105147883005,0.0144084086642,-0.473925352097
1437512300838088989,0.000191983504919,0.0145710092038,-0.485739082098
1437512300858091115,0.000227221855312,0.0144791537896,-0.47359970212
1437512300878099918,-4.19997377321e-05,0.0142460949719,-0.484819948673
1437512300898037910,3.59235527867e-05,0.0141587611288,-0.472683787346
1437512300918044090,0.000104048383946,0.0140602802858,-0.460736125708
1437512300938060998,0.000163449862157,0.0139528112486,-0.448974102736
1437512300958077907,0.000162026975886,0.0138791901991,-0.437394887209
1437512300978045940,0.000193768413737,0.0151931187138,-0.485169440508
1437512300998054027,0.000174473156221,0.0149507699534,-0.473000019789
1437512301018079042,0.00027156539727,0.015344645828,-0.485881179571
1437512301037996053,0.00025434003328,0.0150364274159,-0.473688870668
1437512301057987928,0.000370724475943,0.015242789872,-0.485021233559
1437512301078043937,0.000354255636921,0.0149532509968,-0.47283115983
1437512301098052024,0.000157644346473,0.0150233181193,-0.484665930271
1437512301118084907,-4.46584599558e-05,0.0149488579482,-0.485055059195
1437512301138187885,-2.59227181232e-05,0.0146505655721,-0.472847133875
1437512301158092021,0.000277696992271,0.0153755377978,-0.484856128693
1437512301179090976,0.000266089598881,0.0150108290836,-0.472639918327
1437512301198493957,0.000258676038356,0.0151757858694,-0.484669029713
1437512301218422889,7.39550450817e-05,0.0152274509892,-0.484645754099
1437512301238333940,9.48302767938e-05,0.0150257973,-0.472415596247
1437512301258142948,9.43918494158e-05,0.0150318117812,-0.484490156174
1437512301278464078,0.000122773999465,0.0148421879858,-0.47225099802
1437512301298141002,0.000118878757348,0.0149138486013,-0.484324008226
1437512301318121910,-0.000315212353598,0.0146574620157,-0.485074073076
1437512301338480949,-0.000281783839455,0.0144810574129,-0.472808271646
1437512301358383893,-0.000601621344686,0.0145185478032,-0.484232157469
1437512301378258943,-0.000503938354086,0.0143999010324,-0.471968352795
1437512301398139953,-0.000208925062907,0.0147809283808,-0.484369397163
1437512301418024063,-0.0001574082562,0.0146129466593,-0.472091913223
1437512301438014030,-0.000130501444801,0.0144695471972,-0.460005193949
1437512301458009958,-0.000104532598925,0.0143223404884,-0.448106348515
1437512301478065967,-8.17583277239e-05,0.0141925485805,-0.436392515898
1437512301498414993,-5.86964742979e-05,0.0140585880727,-0.424860864878
1437512301518074989,-3.88988664781e-05,0.0139470966533,-0.413508623838
1437512301538049936,-0.000565763097256,0.0145732285455,-0.48364764452
1437512301558310985,-0.000532957084943,0.0146122863516,-0.485297054052
1437512301578383922,-0.0005299699842,0.0143983475864,-0.472961246967
1437512301598630905,-0.000535710365511,0.0148567203432,-0.484893649817
1437512301618043899,-0.000719401927199,0.01452955883,-0.484433412552
1437512301638045072,-0.000650934001897,0.0143337482587,-0.472094118595
1437512301658128976,-0.000658588600345,0.0142116807401,-0.484615057707
1437512301678078889,-0.00059176585637,0.0140230385587,-0.472261369228
1437512301698141098,-0.000652669928968,0.0142586231232,-0.484282314777
1437512301718127965,-0.000581586908083,0.014038217254,-0.47192248702
1437512301738070964,-0.000511349178851,0.0143416915089,-0.483958959579
1437512301758025884,-7.28508166503e-05,0.0143659152091,-0.484516501427
1437512301778049945,-0.00011578451813,0.0141899650916,-0.47213563323
1437512301798242092,3.24165157508e-05,0.0148666258901,-0.484889924526
1437512301818104028,-2.25504281843e-05,0.0146581437439,-0.472491592169
1437512301838145017,-7.0062589657e-05,0.0146979307756,-0.484726727009
1437512301858091115,-0.000124426966067,0.0144564025104,-0.472319513559
1437512301878115892,0.000713599903975,0.0160510856658,-0.486199915409
1437512301898015975,0.00072900619125,0.0162271950394,-0.48613101244
1437512301918030023,0.000584772322327,0.015804624185,-0.47368401289
1437512301938102006,0.000725470599718,0.0156516842544,-0.486606925726
1437512301958280086,0.000595211051404,0.0153029449284,-0.474140763283
1437512301978024959,0.000523217546288,0.0149957835674,-0.46186837554
1437512301998426914,0.000177796202479,0.0152514437214,-0.486336320639
1437512302018098115,0.0001633704087,0.014999630861,-0.473857432604
1437512302038203954,0.000123640173115,0.0150599116459,-0.486627519131
1437512302058480978,0.000105223763967,0.0148131186143,-0.474132448435
1437512302078188896,0.000300181331113,0.015103279613,-0.48636469245
1437512302098036050,0.000109434418846,0.0151178529486,-0.486359745264
1437512302118048906,0.000170944869751,0.0150164896622,-0.473851591349
1437512302138057947,4.04952006647e-05,0.0151299778372,-0.486413866282
1437512302158082962,0.000110124317871,0.0149696134031,-0.4738933146
1437512302178407907,1.48210674524e-05,0.0150273712352,-0.486542463303
1437512302198105096,6.77731077303e-05,0.0148132909089,-0.474008351564
1437512302218003988,7.96052991063e-05,0.0146496202797,-0.46166908741
1437512302238074064,8.87171627255e-05,0.0144794574007,-0.449521720409
1437512302258295059,-0.000232970109209,0.0147782620043,-0.48559987545
1437512302278095006,-2.28110293392e-05,0.0142649430782,-0.486458957195
1437512302298077106,1.11486660899e-05,0.014148697257,-0.473897874355
1437512302317970037,0.00044090548181,0.0154142519459,-0.486070126295
1437512302338139057,0.000410373701015,0.0151590313762,-0.473503768444
1437512302358006000,0.00060088688042,0.0154068190604,-0.486295104027
1437512302378056049,0.000486496603116,0.0151959471405,-0.486379772425
1437512302398057937,0.000434911402408,0.0149669209495,-0.473791092634
1437512302418018102,0.000394452566979,0.0147424787283,-0.461398154497
1437512302438049077,0.000359692960046,0.0145271951333,-0.449197947979
1437512302458134889,0.000329728500219,0.0143193863332,-0.437187552452
1437512302478075981,0.000270455115242,0.0141654442996,-0.425364077091
1437512302498081922,0.000129950873088,0.0157179199159,-0.486097812653
1437512302518085002,0.000119989112136,0.0153411012143,-0.473480850458
1437512302538414001,-5.81866042921e-05,0.0157796144485,-0.485577881336
1437512302558425903,-7.711748367e-06,0.0154961822554,-0.472957730293
1437512302578388929,-0.000405476981541,0.0161446426064,-0.486544787884
1437512302598001003,-0.000307520705974,0.0158228501678,-0.473897635937
1437512302618016004,-7.38721864764e-05,0.0159944947809,-0.486010819674
1437512302638055086,-0.000112629815703,0.0154969254509,-0.486612200737
1437512302658063888,-6.05510686e-05,0.0151825034991,-0.473946630955
1437512302678061962,-0.000255625898717,0.0155919054523,-0.484243750572
1437512302698070049,-0.000195722444914,0.015230412595,-0.471604585648
1437512302718287944,-0.000158721886692,0.0150655824691,-0.459161967039
1437512302738250017,-0.000126740604173,0.0148819154128,-0.446912914515
1437512302758347034,0.000214388172026,0.015863770619,-0.485937774181
1437512302778423070,0.000142932985909,0.0155645618215,-0.484880506992
1437512302798374891,8.77466009115e-05,0.0154052618891,-0.472202956676
1437512302818104028,0.000126779035782,0.0159642286599,-0.487183004618
1437512302838490009,0.000107114399725,0.0157439820468,-0.474457114935
1437512302858115911,-6.41848091618e-05,0.0160493906587,-0.485031694174
1437512302878107070,9.42492479226e-05,0.0160239394754,-0.485714942217
